{"type":"FeatureCollection","features":[{"type":"Feature","geometry":{"type":"Point","coordinates":[0.76882185,42.902095]},"properties":{"name":"Cabane Tuc de l Etang","url":"http:\/\/www.pyrenees-refuges.com\/fr\/affiche.php?numenr=524","photo":"refugesansphoto.jpg","region":"Boutx","altitude":"1570","cap_ete":"0","cap_hiver":"0","type_hebergement":"cabane ouverte"}},{"type":"Feature","geometry":{"type":"Point","coordinates":[1.46512868,42.6843814]},"properties":{"name":"Orri de Malcaras","url":"http:\/\/www.pyrenees-refuges.com\/fr\/affiche.php?numenr=214","photo":"malcaras.jpg","region":"Auzat","altitude":"2040","cap_ete":"0","cap_hiver":"0","type_hebergement":"orri toue abri en pierre"}},{"type":"Feature","geometry":{"type":"Point","coordinates":[1.60892844,42.5110832]},"properties":{"name":"Refuge des Agols","url":"http:\/\/www.pyrenees-refuges.com\/fr\/affiche.php?numenr=5","photo":"5_1308507988.jpg","region":"Encamp","altitude":"2230","cap_ete":"6","cap_hiver":"6","type_hebergement":"cabane ouverte"}},{"type":"Feature","geometry":{"type":"Point","coordinates":[0.68198,42.71685999]},"properties":{"name":"Cabane Pouylanes","url":"http:\/\/www.pyrenees-refuges.com\/fr\/affiche.php?numenr=519","photo":"refugesansphoto.jpg","region":"es B","altitude":"1940","cap_ete":"0","cap_hiver":"0","type_hebergement":"cabane ouverte"}},{"type":"Feature","geometry":{"type":"Point","coordinates":[-0.539,42.9512]},"properties":{"name":"Cabane de Lapassa (Ronglet - Col Iseye)","url":"http:\/\/www.pyrenees-refuges.com\/fr\/affiche.php?numenr=192","photo":"192_1431872808.jpg","region":"Accous","altitude":"1263","cap_ete":"6","cap_hiver":"6","type_hebergement":"cabane ouverte mais ocupee par le berger l ete"}},{"type":"Feature","geometry":{"type":"Point","coordinates":[-0.2395,43.0428]},"properties":{"name":"Cabane de Monbula","url":"http:\/\/www.pyrenees-refuges.com\/fr\/affiche.php?numenr=1334","photo":"2000_1432801866.jpg","region":"Asson","altitude":"1400","cap_ete":"4","cap_hiver":"4","type_hebergement":"cabane ouverte"}},{"type":"Feature","geometry":{"type":"Point","coordinates":[0.3769,42.6607]},"properties":{"name":"Es Plan","url":"http:\/\/www.pyrenees-refuges.com\/fr\/affiche.php?numenr=1444","photo":"2001_1478512954.jpg","region":"Gista","altitude":"1650","cap_ete":"8","cap_hiver":"8","type_hebergement":"cabane ouverte"}},{"type":"Feature","geometry":{"type":"Point","coordinates":[-0.66689,42.89135]},"properties":{"name":"Cabane de Ann\u00e8s (An\u00e8s)","url":"http:\/\/www.pyrenees-refuges.com\/fr\/affiche.php?numenr=11","photo":"11_1321482726.jpg","region":"Ans","altitude":"1730","cap_ete":"0","cap_hiver":"2","type_hebergement":"cabane ouverte"}},{"type":"Feature","geometry":{"type":"Point","coordinates":[-0.5321076,42.8248468]},"properties":{"name":"Cabane Arnousse","url":"http:\/\/www.pyrenees-refuges.com\/fr\/affiche.php?numenr=418","photo":"arnousse.jpg","region":"Urdos","altitude":"1500","cap_ete":"0","cap_hiver":"0","type_hebergement":"cabane ouverte mais ocupee par le berger l ete"}},{"type":"Feature","geometry":{"type":"Point","coordinates":[-0.52583329,42.891667]},"properties":{"name":"Cabane Borde de Passette","url":"http:\/\/www.pyrenees-refuges.com\/fr\/affiche.php?numenr=423","photo":"423_1443388260.jpg","region":"Accous","altitude":"1200","cap_ete":"0","cap_hiver":"0","type_hebergement":"cabane fermee"}},{"type":"Feature","geometry":{"type":"Point","coordinates":[-0.4719867,42.9750079]},"properties":{"name":"Refuge d'Arrioutort","url":"http:\/\/www.pyrenees-refuges.com\/fr\/affiche.php?numenr=30","photo":"30_1474138261.jpg","region":"Laruns","altitude":"1530","cap_ete":"25","cap_hiver":"25","type_hebergement":"cabane ouverte"}},{"type":"Feature","geometry":{"type":"Point","coordinates":[-0.4656202,42.879876]},"properties":{"name":"Cabane d'Aule","url":"http:\/\/www.pyrenees-refuges.com\/fr\/affiche.php?numenr=38","photo":"aule_cab.jpg","region":"Laruns","altitude":"1711","cap_ete":"0","cap_hiver":"0","type_hebergement":"cabane ouverte mais ocupee par le berger l ete"}},{"type":"Feature","geometry":{"type":"Point","coordinates":[-0.5841961,42.8507903]},"properties":{"name":"Cabane de Couylaret","url":"http:\/\/www.pyrenees-refuges.com\/fr\/affiche.php?numenr=106","photo":"106_1436132498.jpg","region":"Ans","altitude":"1600","cap_ete":"4","cap_hiver":"4","type_hebergement":"cabane ouverte"}},{"type":"Feature","geometry":{"type":"Point","coordinates":[-0.5851491,42.8234076]},"properties":{"name":"Cabane Grosse","url":"http:\/\/www.pyrenees-refuges.com\/fr\/affiche.php?numenr=160","photo":"160_1221830091.jpg","region":"Ans","altitude":"1623","cap_ete":"0","cap_hiver":"4","type_hebergement":"cabane fermee"}},{"type":"Feature","geometry":{"type":"Point","coordinates":[0.45743465,42.62748599]},"properties":{"name":"Refuge Angel'Orus - Forcau","url":"http:\/\/www.pyrenees-refuges.com\/fr\/affiche.php?numenr=146","photo":"forcau.jpg","region":"Sah","altitude":"2100","cap_ete":"55","cap_hiver":"0","type_hebergement":"cabane ouverte"}},{"type":"Feature","geometry":{"type":"Point","coordinates":[1.37122366,42.6824371]},"properties":{"name":"Refuge de Broate","url":"http:\/\/www.pyrenees-refuges.com\/fr\/affiche.php?numenr=659","photo":"659_1446163351.jpg","region":"Lladorre","altitude":"2200","cap_ete":"9","cap_hiver":"9","type_hebergement":"cabane ouverte"}},{"type":"Feature","geometry":{"type":"Point","coordinates":[1.610293,42.445471]},"properties":{"name":"Caseta forestal dels Pollineres","url":"http:\/\/www.pyrenees-refuges.com\/fr\/affiche.php?numenr=1445","photo":"2002_1478525329.jpg","region":"Lles de Cerdanya","altitude":"1940","cap_ete":"2","cap_hiver":"0","type_hebergement":"cabane fermee"}},{"type":"Feature","geometry":{"type":"Point","coordinates":[2.02878418,42.3388178]},"properties":{"name":"Cabane de Campilles","url":"http:\/\/www.pyrenees-refuges.com\/fr\/affiche.php?numenr=79","photo":"refugesansphoto.jpg","region":"Toses","altitude":"","cap_ete":"4","cap_hiver":"4","type_hebergement":"cabane ouverte"}},{"type":"Feature","geometry":{"type":"Point","coordinates":[-0.48290491104126,43.079170066963]},"properties":{"name":"Cabane de Castillou","url":"http:\/\/www.pyrenees-refuges.com\/fr\/affiche.php?numenr=1446","photo":"20200217_817830.jpg","region":"Bielle","altitude":"1260","cap_ete":"","cap_hiver":"3","type_hebergement":"cabane ouverte"}},{"type":"Feature","geometry":{"type":"Point","coordinates":[0.311,42.9613]},"properties":{"name":"Cabanes du Col de Beyr\u00e8de","url":"http:\/\/www.pyrenees-refuges.com\/fr\/affiche.php?numenr=1052","photo":"1052_1474144726.jpg","region":"Beyr\u00e8de-Jumet","altitude":"1420","cap_ete":"8","cap_hiver":"8","type_hebergement":"cabane ouverte"}},{"type":"Feature","geometry":{"type":"Point","coordinates":[-0.4792,42.9275]},"properties":{"name":"Cabane de Artigue de Sesques","url":"http:\/\/www.pyrenees-refuges.com\/fr\/affiche.php?numenr=1156","photo":"2000_1283694347.jpg","region":"Laruns","altitude":"1413","cap_ete":"0","cap_hiver":"0","type_hebergement":"cabane ouverte mais ocupee par le berger l ete"}},{"type":"Feature","geometry":{"type":"Point","coordinates":[2.49426592,42.5347]},"properties":{"name":"Refuge de Prat-Cabrera","url":"http:\/\/www.pyrenees-refuges.com\/fr\/affiche.php?numenr=272","photo":"272_1233578123.jpg","region":"Estoher","altitude":"1650","cap_ete":"0","cap_hiver":"8","type_hebergement":"cabane ouverte mais ocupee par le berger l ete"}},{"type":"Feature","geometry":{"type":"Point","coordinates":[1.88418138,42.5577805]},"properties":{"name":"Refuge de Font-Viva","url":"http:\/\/www.pyrenees-refuges.com\/fr\/affiche.php?numenr=144","photo":"refugesansphoto.jpg","region":"Port\u00e9-Puymorens","altitude":"1900","cap_ete":"0","cap_hiver":"0","type_hebergement":"ruine"}},{"type":"Feature","geometry":{"type":"Point","coordinates":[1.50802373,42.8176841]},"properties":{"name":"Cabane de Artats","url":"http:\/\/www.pyrenees-refuges.com\/fr\/affiche.php?numenr=32","photo":"artas.jpg","region":"Gourbit","altitude":"1695","cap_ete":"4","cap_hiver":"4","type_hebergement":"cabane ouverte"}},{"type":"Feature","geometry":{"type":"Point","coordinates":[1.875926,42.335189]},"properties":{"name":"Refugi del Pla Gran","url":"http:\/\/www.pyrenees-refuges.com\/fr\/affiche.php?numenr=1424","photo":"refugesansphoto.jpg","region":"Ur","altitude":"1 870 ","cap_ete":"0","cap_hiver":"10","type_hebergement":"cabane ouverte mais ocupee par le berger l ete"}},{"type":"Feature","geometry":{"type":"Point","coordinates":[0.7105555,42.591389]},"properties":{"name":"Refuge d'Anglios","url":"http:\/\/www.pyrenees-refuges.com\/fr\/affiche.php?numenr=9","photo":"9_1287429624.jpg","region":"Montanuy","altitude":"2240","cap_ete":"6","cap_hiver":"6","type_hebergement":"cabane ouverte"}},{"type":"Feature","geometry":{"type":"Point","coordinates":[-0.7172694,42.8974612]},"properties":{"name":"Cabane d'Ansab\u00e8re","url":"http:\/\/www.pyrenees-refuges.com\/fr\/affiche.php?numenr=12","photo":"ansaber.jpg","region":"Ans","altitude":"1550","cap_ete":"0","cap_hiver":"10","type_hebergement":"cabane ouverte mais ocupee par le berger l ete"}},{"type":"Feature","geometry":{"type":"Point","coordinates":[2.2019444,42.450556]},"properties":{"name":"Cabane de la Basse","url":"http:\/\/www.pyrenees-refuges.com\/fr\/affiche.php?numenr=47","photo":"refugesansphoto.jpg","region":"Fontp\u00e9drouse","altitude":"2156","cap_ete":"2","cap_hiver":"0","type_hebergement":"cabane ouverte"}},{"type":"Feature","geometry":{"type":"Point","coordinates":[1.919764,42.5974282]},"properties":{"name":"Cabane de Rouzet","url":"http:\/\/www.pyrenees-refuges.com\/fr\/affiche.php?numenr=950","photo":"1001_1211043753.jpg","region":"Angoustrine-Villeneuve-des-Esc","altitude":"2260","cap_ete":"4","cap_hiver":"4","type_hebergement":"cabane ouverte"}},{"type":"Feature","geometry":{"type":"Point","coordinates":[-0.4752,42.90359999]},"properties":{"name":"Cabanes de Gazies","url":"http:\/\/www.pyrenees-refuges.com\/fr\/affiche.php?numenr=1432","photo":"refugesansphoto.jpg","region":"Laruns","altitude":"","cap_ete":"4","cap_hiver":"4","type_hebergement":"cabane ouverte mais ocupee par le berger l ete"}},{"type":"Feature","geometry":{"type":"Point","coordinates":[0.75780334,42.9640797]},"properties":{"name":"Abri Forestier de  Juzet-d'Izaut","url":"http:\/\/www.pyrenees-refuges.com\/fr\/affiche.php?numenr=1390","photo":"1390_1540254310.jpg","region":"Sengouagnet","altitude":"","cap_ete":"4","cap_hiver":"4","type_hebergement":"cabane ouverte"}},{"type":"Feature","geometry":{"type":"Point","coordinates":[0.18693923,42.8610394]},"properties":{"name":"Abri de Port-Bielh","url":"http:\/\/www.pyrenees-refuges.com\/fr\/affiche.php?numenr=2","photo":"port_bielh1.jpg","region":"Vielle-Aure","altitude":"2100","cap_ete":"3","cap_hiver":"3","type_hebergement":"cabane ouverte"}},{"type":"Feature","geometry":{"type":"Point","coordinates":[0.489722,42.416389]},"properties":{"name":"Refuge de La Plana del Turbon","url":"http:\/\/www.pyrenees-refuges.com\/fr\/affiche.php?numenr=264","photo":"264_1432846568.jpg","region":"Valle de Bardaj","altitude":"2000","cap_ete":"15","cap_hiver":"15","type_hebergement":"cabane ouverte"}},{"type":"Feature","geometry":{"type":"Point","coordinates":[2.153611,42.656111]},"properties":{"name":"Refuge Oller","url":"http:\/\/www.pyrenees-refuges.com\/fr\/affiche.php?numenr=647","photo":"647_1467036436.jpg","region":"Puyvalador","altitude":"1810","cap_ete":"2","cap_hiver":"2","type_hebergement":"cabane ouverte"}},{"type":"Feature","geometry":{"type":"Point","coordinates":[1.8627765,42.6802192]},"properties":{"name":"Cabane Col de Joux","url":"http:\/\/www.pyrenees-refuges.com\/fr\/affiche.php?numenr=624","photo":"624_1196948028.jpg","region":"Ax-les-Thermes","altitude":"1702","cap_ete":"8","cap_hiver":"8","type_hebergement":"cabane ouverte"}},{"type":"Feature","geometry":{"type":"Point","coordinates":[1.93182771,42.71831319]},"properties":{"name":"Cabane d'Ascou","url":"http:\/\/www.pyrenees-refuges.com\/fr\/affiche.php?numenr=35","photo":"ascou.jpg","region":"Ascou","altitude":"1323","cap_ete":"0","cap_hiver":"0","type_hebergement":"cabane ouverte"}},{"type":"Feature","geometry":{"type":"Point","coordinates":[0.24406,42.93369]},"properties":{"name":"Cabane de Sarroua","url":"http:\/\/www.pyrenees-refuges.com\/fr\/affiche.php?numenr=885","photo":"sarrouaext\u00e9rieur.jpg","region":"Campan","altitude":"1380","cap_ete":"2","cap_hiver":"2","type_hebergement":"cabane ouverte mais ocupee par le berger l ete"}},{"type":"Feature","geometry":{"type":"Point","coordinates":[1.41543271,42.7122824]},"properties":{"name":"Cabane de Pebr\u00e9","url":"http:\/\/www.pyrenees-refuges.com\/fr\/affiche.php?numenr=1425","photo":"refugesansphoto.jpg","region":"Auzat","altitude":"","cap_ete":"","cap_hiver":"","type_hebergement":"ruine"}},{"type":"Feature","geometry":{"type":"Point","coordinates":[-0.5666,42.93869999]},"properties":{"name":"Cabane de Sargun","url":"http:\/\/www.pyrenees-refuges.com\/fr\/affiche.php?numenr=1433","photo":"refugesansphoto.jpg","region":"Accous","altitude":"1330","cap_ete":"","cap_hiver":"","type_hebergement":"ruine"}},{"type":"Feature","geometry":{"type":"Point","coordinates":[-0.5244,42.9523]},"properties":{"name":"Cabane d Escurets","url":"http:\/\/www.pyrenees-refuges.com\/fr\/affiche.php?numenr=1324","photo":"2000_1431873401.jpg","region":"Accous","altitude":"1690","cap_ete":"2","cap_hiver":"2","type_hebergement":"cabane ouverte mais ocupee par le berger l ete"}},{"type":"Feature","geometry":{"type":"Point","coordinates":[0.07563,42.94035]},"properties":{"name":"Cabane du Lac Bleu","url":"http:\/\/www.pyrenees-refuges.com\/fr\/affiche.php?numenr=188","photo":"lacbleu4.jpg","region":"Beaucens","altitude":"1940","cap_ete":"0","cap_hiver":"0","type_hebergement":"cabane ouverte"}},{"type":"Feature","geometry":{"type":"Point","coordinates":[0.18971825,42.8712102]},"properties":{"name":"Refuge de Port-Bielh","url":"http:\/\/www.pyrenees-refuges.com\/fr\/affiche.php?numenr=267","photo":"refugesansphoto.jpg","region":"Vielle-Aure","altitude":"","cap_ete":"0","cap_hiver":"0","type_hebergement":"ruine"}},{"type":"Feature","geometry":{"type":"Point","coordinates":[0.98489621,42.8164538]},"properties":{"name":"Cabane de Grauilles","url":"http:\/\/www.pyrenees-refuges.com\/fr\/affiche.php?numenr=158","photo":"grauilles2.jpg","region":"Bonac-Irazein","altitude":"1120","cap_ete":"6","cap_hiver":"6","type_hebergement":"cabane ouverte"}},{"type":"Feature","geometry":{"type":"Point","coordinates":[0.5363888,42.645833]},"properties":{"name":"Cabane de Santa Ana","url":"http:\/\/www.pyrenees-refuges.com\/fr\/affiche.php?numenr=768","photo":"768_1432849220.jpg","region":"Benasque","altitude":"1500","cap_ete":"6","cap_hiver":"6","type_hebergement":"cabane ouverte"}},{"type":"Feature","geometry":{"type":"Point","coordinates":[1.37028273,42.7067049]},"properties":{"name":"Orri des Legunes","url":"http:\/\/www.pyrenees-refuges.com\/fr\/affiche.php?numenr=201","photo":"refugesansphoto.jpg","region":"Auzat","altitude":"2000","cap_ete":"3","cap_hiver":"3","type_hebergement":"orri toue abri en pierre"}},{"type":"Feature","geometry":{"type":"Point","coordinates":[-0.090809,42.88747399]},"properties":{"name":"Cabane du Lisey","url":"http:\/\/www.pyrenees-refuges.com\/fr\/affiche.php?numenr=206","photo":"lisey.jpg","region":"Cauterets","altitude":"1636","cap_ete":"3","cap_hiver":"3","type_hebergement":"cabane ouverte"}},{"type":"Feature","geometry":{"type":"Point","coordinates":[1.0242081,42.80742269]},"properties":{"name":"Cabane de Peyralade","url":"http:\/\/www.pyrenees-refuges.com\/fr\/affiche.php?numenr=250","photo":"peyralade.jpg","region":"Bordes-Uchentein","altitude":"1700","cap_ete":"3","cap_hiver":"3","type_hebergement":"cabane ouverte"}},{"type":"Feature","geometry":{"type":"Point","coordinates":[0.666944,42.878889]},"properties":{"name":"Cabane de Saribarolles","url":"http:\/\/www.pyrenees-refuges.com\/fr\/affiche.php?numenr=1037","photo":"1037_1474280514.jpg","region":"Marignac","altitude":"1018","cap_ete":"14","cap_hiver":"14","type_hebergement":"cabane ouverte"}},{"type":"Feature","geometry":{"type":"Point","coordinates":[1.41387166,42.7117463]},"properties":{"name":"Cabane de Peyre","url":"http:\/\/www.pyrenees-refuges.com\/fr\/affiche.php?numenr=1426","photo":"refugesansphoto.jpg","region":"Auzat","altitude":"","cap_ete":"0","cap_hiver":"0","type_hebergement":"ruine"}},{"type":"Feature","geometry":{"type":"Point","coordinates":[-0.5551,42.9315]},"properties":{"name":"Cabane de Pedaing","url":"http:\/\/www.pyrenees-refuges.com\/fr\/affiche.php?numenr=1434","photo":"refugesansphoto.jpg","region":"Accous","altitude":"1380","cap_ete":"","cap_hiver":"","type_hebergement":"ruine"}},{"type":"Feature","geometry":{"type":"Point","coordinates":[0.80852508,42.8767385]},"properties":{"name":"Cabane du Plan des S\u00e9d\u00e8res","url":"http:\/\/www.pyrenees-refuges.com\/fr\/affiche.php?numenr=1172","photo":"1172_1475335189.jpg","region":"Melles","altitude":"1800","cap_ete":"2 3","cap_hiver":"2 3","type_hebergement":"cabane ouverte"}},{"type":"Feature","geometry":{"type":"Point","coordinates":[1.78317316,42.6038169]},"properties":{"name":"Refuge Brougnic","url":"http:\/\/www.pyrenees-refuges.com\/fr\/affiche.php?numenr=71","photo":"brougnic.jpg","region":"M\u00e9rens-les-Vals","altitude":"2060","cap_ete":"4 5 2 3 ","cap_hiver":"4 5 2 3 ","type_hebergement":"cabane ouverte mais ocupee par le berger l ete"}},{"type":"Feature","geometry":{"type":"Point","coordinates":[0.59352017,42.8941217]},"properties":{"name":"Cabane de Guran","url":"http:\/\/www.pyrenees-refuges.com\/fr\/affiche.php?numenr=479","photo":"479_1462127999.jpg","region":"Guran","altitude":"1450","cap_ete":"3","cap_hiver":"3","type_hebergement":"cabane ouverte"}},{"type":"Feature","geometry":{"type":"Point","coordinates":[0.8043,42.8846]},"properties":{"name":"Cabane de Gerus","url":"http:\/\/www.pyrenees-refuges.com\/fr\/affiche.php?numenr=1427","photo":"2000_1475333955.jpg","region":"Melles","altitude":"1550","cap_ete":"2","cap_hiver":"2","type_hebergement":"cabane ouverte"}},{"type":"Feature","geometry":{"type":"Point","coordinates":[2.17,42.6519]},"properties":{"name":"Abri Madres","url":"http:\/\/www.pyrenees-refuges.com\/fr\/affiche.php?numenr=381","photo":"madres.jpg","region":"R\u00e9al","altitude":"2469","cap_ete":"0","cap_hiver":"0","type_hebergement":"orri toue abri en pierre"}},{"type":"Feature","geometry":{"type":"Point","coordinates":[-0.5698,42.93289999]},"properties":{"name":"Cabane de Arna","url":"http:\/\/www.pyrenees-refuges.com\/fr\/affiche.php?numenr=1435","photo":"refugesansphoto.jpg","region":"Accous","altitude":"950","cap_ete":"","cap_hiver":"","type_hebergement":"ruine"}},{"type":"Feature","geometry":{"type":"Point","coordinates":[0.4670262336731,42.919486759648]},"properties":{"name":"Cabane Areng","url":"http:\/\/www.pyrenees-refuges.com\/fr\/affiche.php?numenr=478","photo":"478_1459716004.jpg","region":"Ferr\u00e8re","altitude":"1620","cap_ete":"4 a 5","cap_hiver":"4 a 5","type_hebergement":"cabane ouverte mais ocupee par le berger l ete"}},{"type":"Feature","geometry":{"type":"Point","coordinates":[0.809571,42.60431899]},"properties":{"name":"Refuge du Besiberri (Le Nouveau)","url":"http:\/\/www.pyrenees-refuges.com\/fr\/affiche.php?numenr=823","photo":"823_1281903073.jpg","region":"Vilaller","altitude":"2200","cap_ete":"9","cap_hiver":"9","type_hebergement":"cabane ouverte"}},{"type":"Feature","geometry":{"type":"Point","coordinates":[0.6518,42.75759999]},"properties":{"name":"Cabane deth Cap ,de Bosc","url":"http:\/\/www.pyrenees-refuges.com\/fr\/affiche.php?numenr=1335","photo":"2000_1433854558.jpg","region":"Boss","altitude":"1600","cap_ete":"4","cap_hiver":"4","type_hebergement":"cabane ouverte"}},{"type":"Feature","geometry":{"type":"Point","coordinates":[2.2804,42.4559]},"properties":{"name":"Cabane pastorale de Alemany","url":"http:\/\/www.pyrenees-refuges.com\/fr\/affiche.php?numenr=1438","photo":"2000_1477567631.jpg","region":"Mantet","altitude":"1990","cap_ete":"0","cap_hiver":"0","type_hebergement":"cabane ouverte mais ocupee par le berger l ete"}},{"type":"Feature","geometry":{"type":"Point","coordinates":[1.45884,42.75889999]},"properties":{"name":"Orri d'Engescl\u00e9s","url":"http:\/\/www.pyrenees-refuges.com\/fr\/affiche.php?numenr=1428","photo":"2001_1475498427.jpg","region":"Auzat","altitude":"1700","cap_ete":"4","cap_hiver":"","type_hebergement":"orri toue abri en pierre"}},{"type":"Feature","geometry":{"type":"Point","coordinates":[0.478333,42.771944]},"properties":{"name":"Cabane Montmedan","url":"http:\/\/www.pyrenees-refuges.com\/fr\/affiche.php?numenr=515","photo":"montmedan.jpg","region":"Gouaux-de-Larboust","altitude":"1720","cap_ete":"0","cap_hiver":"0","type_hebergement":"cabane ouverte"}},{"type":"Feature","geometry":{"type":"Point","coordinates":[0.45634,42.84344999]},"properties":{"name":"Cabane Christau du Haut","url":"http:\/\/www.pyrenees-refuges.com\/fr\/affiche.php?numenr=529","photo":"refugesansphoto.jpg","region":"Cazaux-Fr\u00e9chet-An\u00e9ran-Camors","altitude":"1750","cap_ete":"0","cap_hiver":"0","type_hebergement":"cabane ouverte"}},{"type":"Feature","geometry":{"type":"Point","coordinates":[0.5144154,42.778013]},"properties":{"name":"Cabane de Bergueres Milieu","url":"http:\/\/www.pyrenees-refuges.com\/fr\/affiche.php?numenr=497","photo":"497_1483205647.jpg","region":"O\u00f4","altitude":"1343","cap_ete":"1","cap_hiver":"1","type_hebergement":"cabane ouverte"}},{"type":"Feature","geometry":{"type":"Point","coordinates":[0.76140437,42.9198029]},"properties":{"name":"Refuge Col de Mente","url":"http:\/\/www.pyrenees-refuges.com\/fr\/affiche.php?numenr=513","photo":"refugesansphoto.jpg","region":"Boutx","altitude":"1349","cap_ete":"0","cap_hiver":"0","type_hebergement":"cabane fermee"}},{"type":"Feature","geometry":{"type":"Point","coordinates":[0.44753,42.8433]},"properties":{"name":"Cabane Christau du Bas","url":"http:\/\/www.pyrenees-refuges.com\/fr\/affiche.php?numenr=528","photo":"528_1441214884.jpg","region":"Cazaux-Fr\u00e9chet-An\u00e9ran-Camors","altitude":"1597","cap_ete":"0","cap_hiver":"0","type_hebergement":"cabane ouverte"}},{"type":"Feature","geometry":{"type":"Point","coordinates":[1.34639897,42.7360796]},"properties":{"name":"Cabane du Turon d'Ars","url":"http:\/\/www.pyrenees-refuges.com\/fr\/affiche.php?numenr=569","photo":"569_1346958032.jpg","region":"Aulus-les-Bains","altitude":"1831","cap_ete":"4","cap_hiver":"4","type_hebergement":"cabane ouverte"}},{"type":"Feature","geometry":{"type":"Point","coordinates":[-0.4626,42.8964]},"properties":{"name":"Cabane de Er","url":"http:\/\/www.pyrenees-refuges.com\/fr\/affiche.php?numenr=1436","photo":"refugesansphoto.jpg","region":"Laruns","altitude":"2043","cap_ete":"","cap_hiver":"","type_hebergement":"cabane ouverte"}},{"type":"Feature","geometry":{"type":"Point","coordinates":[-0.1219,42.77559999]},"properties":{"name":"Grotte Bellevue","url":"http:\/\/www.pyrenees-refuges.com\/fr\/affiche.php?numenr=57","photo":"grotte_russel.jpg","region":"Gavarnie-G\u00e8dre","altitude":"2450","cap_ete":"10","cap_hiver":"0","type_hebergement":"orri toue abri en pierre"}},{"type":"Feature","geometry":{"type":"Point","coordinates":[0.84814843,42.86714229]},"properties":{"name":"Cabane du Col de La Terme","url":"http:\/\/www.pyrenees-refuges.com\/fr\/affiche.php?numenr=562","photo":"562_1474293414.jpg","region":"Saint-Lary","altitude":"2000","cap_ete":"4","cap_hiver":"4","type_hebergement":"cabane ouverte mais ocupee par le berger l ete"}},{"type":"Feature","geometry":{"type":"Point","coordinates":[1.46058,42.77549]},"properties":{"name":"Orri de Saleix","url":"http:\/\/www.pyrenees-refuges.com\/fr\/affiche.php?numenr=1429","photo":"2003_1475499879.jpg","region":"Auzat","altitude":"1020","cap_ete":"2","cap_hiver":"","type_hebergement":"orri toue abri en pierre"}},{"type":"Feature","geometry":{"type":"Point","coordinates":[-0.0349314,42.6914792]},"properties":{"name":"Abri de La Breche de Roland","url":"http:\/\/www.pyrenees-refuges.com\/fr\/affiche.php?numenr=291","photo":"291_1382816044.jpg","region":"Gavarnie-G\u00e8dre","altitude":"2790","cap_ete":"2","cap_hiver":"2","type_hebergement":"orri toue abri en pierre"}},{"type":"Feature","geometry":{"type":"Point","coordinates":[1.550499,42.606777]},"properties":{"name":"Refuge de Coma Obaga","url":"http:\/\/www.pyrenees-refuges.com\/fr\/affiche.php?numenr=94","photo":"refugesansphoto.jpg","region":"Ordino","altitude":"2010","cap_ete":"6","cap_hiver":"6","type_hebergement":"cabane ouverte"}},{"type":"Feature","geometry":{"type":"Point","coordinates":[-0.4503,42.9598]},"properties":{"name":"Cabane de Lusque","url":"http:\/\/www.pyrenees-refuges.com\/fr\/affiche.php?numenr=1437","photo":"refugesansphoto.jpg","region":"Laruns","altitude":"","cap_ete":"","cap_hiver":"","type_hebergement":"ruine"}},{"type":"Feature","geometry":{"type":"Point","coordinates":[2.45708313,42.5489355]},"properties":{"name":"Refuge de Balatg","url":"http:\/\/www.pyrenees-refuges.com\/fr\/affiche.php?numenr=396","photo":"396_1232961745.jpg","region":"Taurinya","altitude":"1680","cap_ete":"20","cap_hiver":"20","type_hebergement":"cabane ouverte"}},{"type":"Feature","geometry":{"type":"Point","coordinates":[0.8793962,42.83393]},"properties":{"name":"Cabane de l'Etang d'Araing","url":"http:\/\/www.pyrenees-refuges.com\/fr\/affiche.php?numenr=678","photo":"arraing_cab.jpg","region":"Sentein","altitude":"1965","cap_ete":"10","cap_hiver":"10","type_hebergement":"cabane ouverte"}},{"type":"Feature","geometry":{"type":"Point","coordinates":[-0.9404897,42.967179]},"properties":{"name":"Abri d'Ardane Gagnekoa","url":"http:\/\/www.pyrenees-refuges.com\/fr\/affiche.php?numenr=22","photo":"ardane.jpg","region":"Larrau","altitude":"1312","cap_ete":"12","cap_hiver":"12","type_hebergement":"cabane ouverte"}},{"type":"Feature","geometry":{"type":"Point","coordinates":[1.46330604,42.76427129]},"properties":{"name":"Cabane foresti\u00e8re du Far","url":"http:\/\/www.pyrenees-refuges.com\/fr\/affiche.php?numenr=923","photo":"923_1232221832.jpg","region":"Auzat","altitude":"1259","cap_ete":"4","cap_hiver":"4","type_hebergement":"cabane ouverte"}},{"type":"Feature","geometry":{"type":"Point","coordinates":[1.19794311,42.8292142]},"properties":{"name":"Cabane du Cap de La Serre","url":"http:\/\/www.pyrenees-refuges.com\/fr\/affiche.php?numenr=83","photo":"refugesansphoto.jpg","region":"Seix","altitude":"2170","cap_ete":"0","cap_hiver":"0","type_hebergement":"cabane ouverte"}},{"type":"Feature","geometry":{"type":"Point","coordinates":[-0.26673029,42.8693954]},"properties":{"name":"Cabane de Doumblas","url":"http:\/\/www.pyrenees-refuges.com\/fr\/affiche.php?numenr=111","photo":"cdoumbla.jpg","region":"Arrens-Marsous","altitude":"1563","cap_ete":"4","cap_hiver":"4","type_hebergement":"cabane ouverte"}},{"type":"Feature","geometry":{"type":"Point","coordinates":[-0.2642732,42.8555255]},"properties":{"name":"Refuge Ledormeur","url":"http:\/\/www.pyrenees-refuges.com\/fr\/affiche.php?numenr=200","photo":"ledormeur.jpg","region":"Arrens-Marsous","altitude":"1970","cap_ete":"12","cap_hiver":"12","type_hebergement":"cabane ouverte"}},{"type":"Feature","geometry":{"type":"Point","coordinates":[-0.50949999,42.9382]},"properties":{"name":"Cabane de Liet","url":"http:\/\/www.pyrenees-refuges.com\/fr\/affiche.php?numenr=1431","photo":"2000_1477262944.jpg","region":"Laruns","altitude":"2050","cap_ete":"2","cap_hiver":"2","type_hebergement":"cabane ouverte"}},{"type":"Feature","geometry":{"type":"Point","coordinates":[-0.7061924,42.9224856]},"properties":{"name":"Cabane de Lhurs","url":"http:\/\/www.pyrenees-refuges.com\/fr\/affiche.php?numenr=202","photo":"lhurs1.jpg","region":"Ans","altitude":"1700","cap_ete":"0","cap_hiver":"6","type_hebergement":"cabane ouverte mais ocupee par le berger l ete"}},{"type":"Feature","geometry":{"type":"Point","coordinates":[2.0011361,42.370655]},"properties":{"name":"Refuge de l'Orry Andreu","url":"http:\/\/www.pyrenees-refuges.com\/fr\/affiche.php?numenr=366","photo":"366_1243194726.jpg","region":"Oss\u00e9ja","altitude":"1930","cap_ete":"0","cap_hiver":"0","type_hebergement":"cabane ouverte"}},{"type":"Feature","geometry":{"type":"Point","coordinates":[1.81523,42.71604]},"properties":{"name":"refuge du Baillat","url":"http:\/\/www.pyrenees-refuges.com\/fr\/affiche.php?numenr=1439","photo":"1439_1478087625.jpg","region":"Savignac-les-Ormeaux","altitude":"999","cap_ete":"1","cap_hiver":"1","type_hebergement":"cabane ouverte"}},{"type":"Feature","geometry":{"type":"Point","coordinates":[0.8822795,42.8454681]},"properties":{"name":"Cabane d'Illau","url":"http:\/\/www.pyrenees-refuges.com\/fr\/affiche.php?numenr=172","photo":"172_1474452895.jpg172_1474445607.jpg","region":"Sentein","altitude":"1485","cap_ete":"6","cap_hiver":"6","type_hebergement":"cabane ouverte mais ocupee par le berger l ete"}},{"type":"Feature","geometry":{"type":"Point","coordinates":[-0.411998,42.869404]},"properties":{"name":"Cabane de Ch\u00e8rue","url":"http:\/\/www.pyrenees-refuges.com\/fr\/affiche.php?numenr=755","photo":"cherue.jpg","region":"Laruns","altitude":"1800","cap_ete":"4","cap_hiver":"4","type_hebergement":"cabane ouverte"}},{"type":"Feature","geometry":{"type":"Point","coordinates":[0.57059182,42.8553664]},"properties":{"name":"Cabane d Antenac Superieur","url":"http:\/\/www.pyrenees-refuges.com\/fr\/affiche.php?numenr=14","photo":"14_1463701224.jpg","region":"Cier-de-Luchon","altitude":"1790","cap_ete":"1","cap_hiver":"1","type_hebergement":"cabane ouverte"}},{"type":"Feature","geometry":{"type":"Point","coordinates":[0.47816,42.77212]},"properties":{"name":"Cabane de la P\u00e9ne de Montmedan","url":"http:\/\/www.pyrenees-refuges.com\/fr\/affiche.php?numenr=228","photo":"refugesansphoto.jpg","region":"Gouaux-de-Larboust","altitude":"1740","cap_ete":"0","cap_hiver":"0","type_hebergement":"cabane ouverte"}},{"type":"Feature","geometry":{"type":"Point","coordinates":[-0.348246,43.048509]},"properties":{"name":"Cabane Couscouilla","url":"http:\/\/www.pyrenees-refuges.com\/fr\/affiche.php?numenr=428","photo":"428_1202062076.jpg","region":"Castet","altitude":"1370","cap_ete":"8","cap_hiver":"8","type_hebergement":"cabane ouverte"}},{"type":"Feature","geometry":{"type":"Point","coordinates":[1.46703,42.77086]},"properties":{"name":"Lavoir de Saleix","url":"http:\/\/www.pyrenees-refuges.com\/fr\/affiche.php?numenr=1430","photo":"2002_1475499144.jpg","region":"Auzat","altitude":"835","cap_ete":"","cap_hiver":"","type_hebergement":"cabane ouverte"}},{"type":"Feature","geometry":{"type":"Point","coordinates":[0.15187313,42.8753848]},"properties":{"name":"Cabane Aygues-Cluses","url":"http:\/\/www.pyrenees-refuges.com\/fr\/affiche.php?numenr=40","photo":"ayguecluse.jpg","region":"Bar\u00e8ges","altitude":"2150","cap_ete":"6","cap_hiver":"6","type_hebergement":"cabane ouverte"}},{"type":"Feature","geometry":{"type":"Point","coordinates":[1.55165647,42.7122377]},"properties":{"name":"Cabane d'Auruzan","url":"http:\/\/www.pyrenees-refuges.com\/fr\/affiche.php?numenr=341","photo":"341_1219676879.jpg","region":"Siguer","altitude":"1620","cap_ete":"2","cap_hiver":"2","type_hebergement":"cabane ouverte"}},{"type":"Feature","geometry":{"type":"Point","coordinates":[1.97341697,42.57343319]},"properties":{"name":"Abri de l'Estany de Les Dugues","url":"http:\/\/www.pyrenees-refuges.com\/fr\/affiche.php?numenr=130","photo":"dugues.jpg","region":"Angoustrine-Villeneuve-des-Esc","altitude":"2220","cap_ete":"4","cap_hiver":"4","type_hebergement":"cabane ouverte"}},{"type":"Feature","geometry":{"type":"Point","coordinates":[1.9521,42.573]},"properties":{"name":"Cabane de l'Etang de Soubirans","url":"http:\/\/www.pyrenees-refuges.com\/fr\/affiche.php?numenr=304","photo":"soubirans.jpg","region":"Angoustrine-Villeneuve-des-Esc","altitude":"2200","cap_ete":"0","cap_hiver":"0","type_hebergement":"ruine"}},{"type":"Feature","geometry":{"type":"Point","coordinates":[1.85067063,42.59983669]},"properties":{"name":"Refuge du Barrage des Besines","url":"http:\/\/www.pyrenees-refuges.com\/fr\/affiche.php?numenr=52","photo":"besines-edf.jpg","region":"M\u00e9rens-les-Vals","altitude":"1975","cap_ete":"5","cap_hiver":"5","type_hebergement":"cabane ouverte"}},{"type":"Feature","geometry":{"type":"Point","coordinates":[0.8330555,42.607222]},"properties":{"name":"Refuge du Besiberri (l Ancien)","url":"http:\/\/www.pyrenees-refuges.com\/fr\/affiche.php?numenr=53","photo":"refugesansphoto.jpg","region":"la Vall de Bo","altitude":"2780","cap_ete":"0","cap_hiver":"0","type_hebergement":"cabane ouverte"}},{"type":"Feature","geometry":{"type":"Point","coordinates":[1.96810081,42.56879039]},"properties":{"name":"Abri du Lac d Estany Llong","url":"http:\/\/www.pyrenees-refuges.com\/fr\/affiche.php?numenr=131","photo":"estany_llong.jpg","region":"Angoustrine-Villeneuve-des-Esc","altitude":"2200","cap_ete":"4","cap_hiver":"4","type_hebergement":"ruine"}},{"type":"Feature","geometry":{"type":"Point","coordinates":[2.9569444,42.475833]},"properties":{"name":"Refuge de La Tagnarede","url":"http:\/\/www.pyrenees-refuges.com\/fr\/affiche.php?numenr=306","photo":"tagnarede.jpg","region":"Sor\u00e8de","altitude":"1052","cap_ete":"12","cap_hiver":"12","type_hebergement":"cabane ouverte"}},{"type":"Feature","geometry":{"type":"Point","coordinates":[2.01189945,42.5897211]},"properties":{"name":"Cabane de la Balmeta","url":"http:\/\/www.pyrenees-refuges.com\/fr\/affiche.php?numenr=45","photo":"balmette.jpg","region":"Les Angles","altitude":"2100","cap_ete":"8","cap_hiver":"8","type_hebergement":"cabane ouverte"}},{"type":"Feature","geometry":{"type":"Point","coordinates":[0.98107015,42.8937966]},"properties":{"name":"Cabane du Col de l'Araing","url":"http:\/\/www.pyrenees-refuges.com\/fr\/affiche.php?numenr=26","photo":"arraingcab.jpg","region":"Balacet","altitude":"1350","cap_ete":"4","cap_hiver":"4","type_hebergement":"cabane ouverte"}},{"type":"Feature","geometry":{"type":"Point","coordinates":[1.07803727,42.8397808]},"properties":{"name":"Cabane Eychelle","url":"http:\/\/www.pyrenees-refuges.com\/fr\/affiche.php?numenr=338","photo":"eychelle.jpg","region":"Bethmale","altitude":"1980","cap_ete":"3","cap_hiver":"3","type_hebergement":"cabane ouverte mais ocupee par le berger l ete"}},{"type":"Feature","geometry":{"type":"Point","coordinates":[-0.3654871,42.84172079]},"properties":{"name":"Cabane d'Arrious","url":"http:\/\/www.pyrenees-refuges.com\/fr\/affiche.php?numenr=29","photo":"arrious2.jpg","region":"Sallent de G","altitude":"1775","cap_ete":"0","cap_hiver":"0","type_hebergement":"cabane ouverte"}},{"type":"Feature","geometry":{"type":"Point","coordinates":[2.04617,42.51757]},"properties":{"name":"Cabane de Fornells","url":"http:\/\/www.pyrenees-refuges.com\/fr\/affiche.php?numenr=663","photo":"farneils.jpg","region":"Font-Romeu-Odeillo-Via","altitude":"1880","cap_ete":"4","cap_hiver":"4","type_hebergement":"cabane fermee"}},{"type":"Feature","geometry":{"type":"Point","coordinates":[1.5916574,42.70798949]},"properties":{"name":"Cabane de Beze","url":"http:\/\/www.pyrenees-refuges.com\/fr\/affiche.php?numenr=64","photo":"64_1198148517.jpg","region":"Aston","altitude":"2175","cap_ete":"3","cap_hiver":"3","type_hebergement":"cabane ouverte"}},{"type":"Feature","geometry":{"type":"Point","coordinates":[0.53300325,42.7255064]},"properties":{"name":"Cabane de Sarn\u00e8s","url":"http:\/\/www.pyrenees-refuges.com\/fr\/affiche.php?numenr=335","photo":"crabouiles.jpg","region":"Cazeaux-de-Larboust","altitude":"2240","cap_ete":"15 16","cap_hiver":"15 16","type_hebergement":"cabane ouverte"}},{"type":"Feature","geometry":{"type":"Point","coordinates":[-0.64115999,42.87368]},"properties":{"name":"Cabane det Caillau","url":"http:\/\/www.pyrenees-refuges.com\/fr\/affiche.php?numenr=76","photo":"caillaou ext.jpg","region":"Ans","altitude":"1456","cap_ete":"0","cap_hiver":"20","type_hebergement":"cabane ouverte mais ocupee par le berger l ete"}},{"type":"Feature","geometry":{"type":"Point","coordinates":[2.04763484,42.6371032]},"properties":{"name":"Cabane Jaceta","url":"http:\/\/www.pyrenees-refuges.com\/fr\/affiche.php?numenr=352","photo":"jasette.jpg","region":"Fontrabiouse","altitude":"1640","cap_ete":"10","cap_hiver":"10","type_hebergement":"cabane ouverte"}},{"type":"Feature","geometry":{"type":"Point","coordinates":[1.7984,42.6402]},"properties":{"name":"Cabane de la Jasse de Mourguillou (ou Etang de Comte)","url":"http:\/\/www.pyrenees-refuges.com\/fr\/affiche.php?numenr=99","photo":"comte2.jpg","region":"M\u00e9rens-les-Vals","altitude":"1680","cap_ete":"2","cap_hiver":"2","type_hebergement":"cabane ouverte"}},{"type":"Feature","geometry":{"type":"Point","coordinates":[1.03380382,42.7920468]},"properties":{"name":"Cabane de Barlonguere","url":"http:\/\/www.pyrenees-refuges.com\/fr\/affiche.php?numenr=92","photo":"barlonguere_cab.jpg","region":"Bordes-Uchentein","altitude":"2255","cap_ete":"4","cap_hiver":"4","type_hebergement":"cabane ouverte mais ocupee par le berger l ete"}},{"type":"Feature","geometry":{"type":"Point","coordinates":[1.51798965,42.7339693]},"properties":{"name":"Orri du Pique d Endron","url":"http:\/\/www.pyrenees-refuges.com\/fr\/affiche.php?numenr=680","photo":"endron_toue.jpg","region":"Goulier","altitude":"1700","cap_ete":"0","cap_hiver":"0","type_hebergement":"orri toue abri en pierre"}},{"type":"Feature","geometry":{"type":"Point","coordinates":[0.18921871,42.8665726]},"properties":{"name":"Cabane de Port Bielh","url":"http:\/\/www.pyrenees-refuges.com\/fr\/affiche.php?numenr=74","photo":"port_bielh2.jpg","region":"Vielle-Aure","altitude":"2210","cap_ete":"0","cap_hiver":"0","type_hebergement":"cabane fermee"}},{"type":"Feature","geometry":{"type":"Point","coordinates":[2.17079999,42.4826]},"properties":{"name":"Orri de Prats Balaguer","url":"http:\/\/www.pyrenees-refuges.com\/fr\/affiche.php?numenr=690","photo":"orryfontp.jpg","region":"Fontp\u00e9drouse","altitude":"1500","cap_ete":"2","cap_hiver":"2","type_hebergement":"orri toue abri en pierre"}},{"type":"Feature","geometry":{"type":"Point","coordinates":[0.72270638,42.9397553]},"properties":{"name":"Cabane du Col de Caube","url":"http:\/\/www.pyrenees-refuges.com\/fr\/affiche.php?numenr=90","photo":"90_1244497218.jpg","region":"Boutx","altitude":"1380","cap_ete":"10","cap_hiver":"10","type_hebergement":"cabane ouverte"}},{"type":"Feature","geometry":{"type":"Point","coordinates":[1.78148636,42.68481049]},"properties":{"name":"Cabane des esquers du dessus","url":"http:\/\/www.pyrenees-refuges.com\/fr\/affiche.php?numenr=127","photo":"esquersdessus5.jpg","region":"Savignac-les-Ormeaux","altitude":"1350","cap_ete":"6","cap_hiver":"6","type_hebergement":"cabane ouverte"}},{"type":"Feature","geometry":{"type":"Point","coordinates":[-0.290555,42.920278]},"properties":{"name":"Cabane de Bassia","url":"http:\/\/www.pyrenees-refuges.com\/fr\/affiche.php?numenr=48","photo":"bassia2.jpg","region":"Arrens-Marsous","altitude":"1900","cap_ete":"6","cap_hiver":"6","type_hebergement":"cabane ouverte"}},{"type":"Feature","geometry":{"type":"Point","coordinates":[1.4500833,42.629167]},"properties":{"name":"Cabane d'Estrets","url":"http:\/\/www.pyrenees-refuges.com\/fr\/affiche.php?numenr=107","photo":"crouts.jpg","region":"Auzat","altitude":"1820","cap_ete":"0","cap_hiver":"4","type_hebergement":"cabane ouverte"}},{"type":"Feature","geometry":{"type":"Point","coordinates":[0.8727049,42.8957358]},"properties":{"name":"Cabane du Col de l'Estrade","url":"http:\/\/www.pyrenees-refuges.com\/fr\/affiche.php?numenr=138","photo":"estrade.jpg","region":"Saint-Lary","altitude":"1430","cap_ete":"8","cap_hiver":"8","type_hebergement":"cabane ouverte"}},{"type":"Feature","geometry":{"type":"Point","coordinates":[1.78546747,42.6949794]},"properties":{"name":"Cabane des Esquers du dessous","url":"http:\/\/www.pyrenees-refuges.com\/fr\/affiche.php?numenr=126","photo":"esquersdessous1.jpg","region":"Savignac-les-Ormeaux","altitude":"1264","cap_ete":"3","cap_hiver":"3","type_hebergement":"cabane ouverte"}},{"type":"Feature","geometry":{"type":"Point","coordinates":[1.607201,42.489837]},"properties":{"name":"Cabane de la Farga","url":"http:\/\/www.pyrenees-refuges.com\/fr\/affiche.php?numenr=140","photo":"140_1258912224.jpg","region":"Escaldes-Engordany","altitude":"2200","cap_ete":"6","cap_hiver":"6","type_hebergement":"cabane ouverte"}},{"type":"Feature","geometry":{"type":"Point","coordinates":[1.59453,42.492084]},"properties":{"name":"Refuge de Fontverd","url":"http:\/\/www.pyrenees-refuges.com\/fr\/affiche.php?numenr=143","photo":"143_1258911880.jpg","region":"Escaldes-Engordany","altitude":"1830","cap_ete":"8","cap_hiver":"8","type_hebergement":"cabane ouverte"}},{"type":"Feature","geometry":{"type":"Point","coordinates":[1.96831382,42.5639423]},"properties":{"name":"Refuge des Fr\u00e9res Aymard","url":"http:\/\/www.pyrenees-refuges.com\/fr\/affiche.php?numenr=147","photo":"frereaymard.jpg","region":"Angoustrine-Villeneuve-des-Esc","altitude":"2180","cap_ete":"4","cap_hiver":"4","type_hebergement":"cabane ouverte"}},{"type":"Feature","geometry":{"type":"Point","coordinates":[0.3367,42.73769999]},"properties":{"name":"Cabane du Lustou","url":"http:\/\/www.pyrenees-refuges.com\/fr\/affiche.php?numenr=152","photo":"152_1475746731.jpg","region":"Saint-Lary-Soulan","altitude":"2070","cap_ete":"0","cap_hiver":"0","type_hebergement":"cabane ouverte"}},{"type":"Feature","geometry":{"type":"Point","coordinates":[0.04487555,42.9501553]},"properties":{"name":"Cabane du Lac d'Ourrec","url":"http:\/\/www.pyrenees-refuges.com\/fr\/affiche.php?numenr=240","photo":"cab_lac_Ourrec3.jpg","region":"Beaucens","altitude":"1667","cap_ete":"2","cap_hiver":"2","type_hebergement":"cabane ouverte"}},{"type":"Feature","geometry":{"type":"Point","coordinates":[0.04915,42.817834]},"properties":{"name":"Cabane de Motte","url":"http:\/\/www.pyrenees-refuges.com\/fr\/affiche.php?numenr=219","photo":"219_1275984072.jpg","region":"Luz-Saint-Sauveur","altitude":"1393","cap_ete":"6","cap_hiver":"6","type_hebergement":"cabane ouverte"}},{"type":"Feature","geometry":{"type":"Point","coordinates":[1.90158068,42.5780121]},"properties":{"name":"Refuge de La Guimbarde","url":"http:\/\/www.pyrenees-refuges.com\/fr\/affiche.php?numenr=161","photo":"161_1475501148.jpg","region":"Angoustrine-Villeneuve-des-Esc","altitude":"2220","cap_ete":"0","cap_hiver":"0","type_hebergement":"ruine"}},{"type":"Feature","geometry":{"type":"Point","coordinates":[1.70345451,42.7353419]},"properties":{"name":"Cabane Gerieys","url":"http:\/\/www.pyrenees-refuges.com\/fr\/affiche.php?numenr=621","photo":"gerieys.jpg","region":"Lassur","altitude":"1680","cap_ete":"0","cap_hiver":"0","type_hebergement":"cabane fermee"}},{"type":"Feature","geometry":{"type":"Point","coordinates":[1.578223,42.47974099]},"properties":{"name":"Cabane de Perafita","url":"http:\/\/www.pyrenees-refuges.com\/fr\/affiche.php?numenr=248","photo":"248_1258913205.jpg","region":"Escaldes-Engordany","altitude":"2200","cap_ete":"6","cap_hiver":"6","type_hebergement":"cabane ouverte"}},{"type":"Feature","geometry":{"type":"Point","coordinates":[0.57168372,42.7196414]},"properties":{"name":"Cabane de la Houradade","url":"http:\/\/www.pyrenees-refuges.com\/fr\/affiche.php?numenr=168","photo":"houradade.jpg","region":"Castillon-de-Larboust","altitude":"1714","cap_ete":"0","cap_hiver":"2","type_hebergement":"cabane ouverte mais ocupee par le berger l ete"}},{"type":"Feature","geometry":{"type":"Point","coordinates":[1.60845841,42.7131801]},"properties":{"name":"Refuge de Larnoum","url":"http:\/\/www.pyrenees-refuges.com\/fr\/affiche.php?numenr=193","photo":"193_1284377643.jpg","region":"Aston","altitude":"1765","cap_ete":"2","cap_hiver":"2","type_hebergement":"cabane ouverte"}},{"type":"Feature","geometry":{"type":"Point","coordinates":[-0.6915484,42.978199]},"properties":{"name":"Cabane Icheus","url":"http:\/\/www.pyrenees-refuges.com\/fr\/affiche.php?numenr=422","photo":"422_1431675323.jpg","region":"Osse-en-Aspe","altitude":"1580","cap_ete":"6","cap_hiver":"6","type_hebergement":"cabane ouverte"}},{"type":"Feature","geometry":{"type":"Point","coordinates":[0.11771595,42.9138144]},"properties":{"name":"Cabane d'Aoube","url":"http:\/\/www.pyrenees-refuges.com\/fr\/affiche.php?numenr=16","photo":"16_1236086248.jpg","region":"Sers","altitude":"1850","cap_ete":"0","cap_hiver":"2","type_hebergement":"cabane ouverte"}},{"type":"Feature","geometry":{"type":"Point","coordinates":[1.76172,42.65039]},"properties":{"name":"Refuge de Prat Redoun","url":"http:\/\/www.pyrenees-refuges.com\/fr\/affiche.php?numenr=275","photo":"pratredon.jpg","region":"Savignac-les-Ormeaux","altitude":"1809","cap_ete":"6","cap_hiver":"6","type_hebergement":"cabane ouverte"}},{"type":"Feature","geometry":{"type":"Point","coordinates":[1.67146723,42.6112587]},"properties":{"name":"Cabane de Sorda","url":"http:\/\/www.pyrenees-refuges.com\/fr\/affiche.php?numenr=303","photo":"303_1219234640.jpg","region":"Canillo","altitude":"2295","cap_ete":"20","cap_hiver":"20","type_hebergement":"cabane ouverte"}},{"type":"Feature","geometry":{"type":"Point","coordinates":[1.32743078,42.7338359]},"properties":{"name":"Cabane de Turguilla","url":"http:\/\/www.pyrenees-refuges.com\/fr\/affiche.php?numenr=317","photo":"317_1348478710.jpg","region":"Ustou","altitude":"2078","cap_ete":"4","cap_hiver":"4","type_hebergement":"cabane ouverte"}},{"type":"Feature","geometry":{"type":"Point","coordinates":[-0.2517148,42.9160445]},"properties":{"name":"Cabane Barrage du Tech","url":"http:\/\/www.pyrenees-refuges.com\/fr\/affiche.php?numenr=331","photo":"tech1.jpg","region":"Arrens-Marsous","altitude":"1260","cap_ete":"3","cap_hiver":"3","type_hebergement":"cabane ouverte"}},{"type":"Feature","geometry":{"type":"Point","coordinates":[-0.165331,43.065063]},"properties":{"name":"Cabane de Aoulhet","url":"http:\/\/www.pyrenees-refuges.com\/fr\/affiche.php?numenr=725","photo":"725_1444559833.jpg","region":"Saint-P\u00e9-de-Bigorre","altitude":"1159","cap_ete":"4","cap_hiver":"4","type_hebergement":"cabane ouverte"}},{"type":"Feature","geometry":{"type":"Point","coordinates":[1.43055178,42.8008688]},"properties":{"name":"Cabane de Freychinede","url":"http:\/\/www.pyrenees-refuges.com\/fr\/affiche.php?numenr=736","photo":"freychinede.jpg","region":"Suc-et-Sentenac","altitude":"1400","cap_ete":"4","cap_hiver":"4","type_hebergement":"cabane ouverte"}},{"type":"Feature","geometry":{"type":"Point","coordinates":[1.4036858,42.7823306]},"properties":{"name":"Cabane du Port de Saleix","url":"http:\/\/www.pyrenees-refuges.com\/fr\/affiche.php?numenr=737","photo":"saleix.jpg","region":"Auzat","altitude":"1794","cap_ete":"0","cap_hiver":"0","type_hebergement":"ruine"}},{"type":"Feature","geometry":{"type":"Point","coordinates":[0.57788472,42.7120185]},"properties":{"name":"Abri de Graues","url":"http:\/\/www.pyrenees-refuges.com\/fr\/affiche.php?numenr=771","photo":"graues.jpg","region":"Castillon-de-Larboust","altitude":"2000","cap_ete":"1","cap_hiver":"0","type_hebergement":"cabane ouverte"}},{"type":"Feature","geometry":{"type":"Point","coordinates":[2.2811222076416,42.456790025936]},"properties":{"name":"Cabane de Alemany","url":"http:\/\/www.pyrenees-refuges.com\/fr\/affiche.php?numenr=852","photo":"alemany.jpg","region":"Mantet","altitude":"1968","cap_ete":"8","cap_hiver":"8","type_hebergement":"cabane ouverte"}},{"type":"Feature","geometry":{"type":"Point","coordinates":[0.0041,42.73041]},"properties":{"name":"Cabane d'Alans","url":"http:\/\/www.pyrenees-refuges.com\/fr\/affiche.php?numenr=1153","photo":"1153_1472997813.jpg","region":"Gavarnie-G\u00e8dre","altitude":"1905","cap_ete":"2","cap_hiver":"2","type_hebergement":"cabane ouverte"}},{"type":"Feature","geometry":{"type":"Point","coordinates":[-0.4698797,42.85560929]},"properties":{"name":"Cabane Col Long Dayous d'En Haut","url":"http:\/\/www.pyrenees-refuges.com\/fr\/affiche.php?numenr=749","photo":"ayous_haut.jpg","region":"Laruns","altitude":"1720","cap_ete":"0","cap_hiver":"0","type_hebergement":"cabane ouverte"}},{"type":"Feature","geometry":{"type":"Point","coordinates":[1.45252818,42.8434046]},"properties":{"name":"Cabane de la Coumeders","url":"http:\/\/www.pyrenees-refuges.com\/fr\/affiche.php?numenr=104","photo":"coumeders.jpg","region":"Rabat-les-Trois-Seigneurs","altitude":"1450","cap_ete":"4","cap_hiver":"4","type_hebergement":"cabane ouverte"}},{"type":"Feature","geometry":{"type":"Point","coordinates":[0.02453568,42.8385807]},"properties":{"name":"Cabane de Marvarissa Ou de Bachebirou","url":"http:\/\/www.pyrenees-refuges.com\/fr\/affiche.php?numenr=222","photo":"bergons.jpg","region":"Luz-Saint-Sauveur","altitude":"1988","cap_ete":"5","cap_hiver":"5","type_hebergement":"cabane ouverte"}},{"type":"Feature","geometry":{"type":"Point","coordinates":[-0.5175628,42.8517508]},"properties":{"name":"Refuge de Larry","url":"http:\/\/www.pyrenees-refuges.com\/fr\/affiche.php?numenr=195","photo":"195_1216753932.jpg","region":"Etsaut","altitude":"1724","cap_ete":"7","cap_hiver":"7","type_hebergement":"cabane ouverte"}},{"type":"Feature","geometry":{"type":"Point","coordinates":[1.77574678,42.6741383]},"properties":{"name":"Cabane Edf de Savignac Ou du Ressec","url":"http:\/\/www.pyrenees-refuges.com\/fr\/affiche.php?numenr=349","photo":"ressec.jpg","region":"Savignac-les-Ormeaux","altitude":"1480","cap_ete":"4","cap_hiver":"4","type_hebergement":"cabane ouverte"}},{"type":"Feature","geometry":{"type":"Point","coordinates":[0.09803984,42.7591235]},"properties":{"name":"Cabane de Aguila","url":"http:\/\/www.pyrenees-refuges.com\/fr\/affiche.php?numenr=455","photo":"aguila.jpg","region":"Gavarnie-G\u00e8dre","altitude":"1900","cap_ete":"4","cap_hiver":"4","type_hebergement":"cabane ouverte"}},{"type":"Feature","geometry":{"type":"Point","coordinates":[1.48804,42.91470129]},"properties":{"name":"Cabane de la Dev\u00e8ze","url":"http:\/\/www.pyrenees-refuges.com\/fr\/affiche.php?numenr=597","photo":"597_1254509926.jpg","region":"Brassac","altitude":"1514","cap_ete":"2","cap_hiver":"2","type_hebergement":"cabane ouverte"}},{"type":"Feature","geometry":{"type":"Point","coordinates":[0.24731417,42.8560891]},"properties":{"name":"Cabane Auloueilh","url":"http:\/\/www.pyrenees-refuges.com\/fr\/affiche.php?numenr=470","photo":"470_1197576319.jpg","region":"Aulon","altitude":"1853","cap_ete":"12","cap_hiver":"12","type_hebergement":"cabane ouverte"}},{"type":"Feature","geometry":{"type":"Point","coordinates":[-0.4611105,42.8391225]},"properties":{"name":"Cabane de Peyreget","url":"http:\/\/www.pyrenees-refuges.com\/fr\/affiche.php?numenr=777","photo":"peyreget.jpg","region":"Laruns","altitude":"1920","cap_ete":"0","cap_hiver":"0","type_hebergement":"cabane ouverte"}},{"type":"Feature","geometry":{"type":"Point","coordinates":[-0.1012,42.8081283]},"properties":{"name":"Cabane de Estom","url":"http:\/\/www.pyrenees-refuges.com\/fr\/affiche.php?numenr=136","photo":"estom_cab.jpg","region":"Cauterets","altitude":"1820","cap_ete":"4","cap_hiver":"4","type_hebergement":"cabane ouverte"}},{"type":"Feature","geometry":{"type":"Point","coordinates":[0.08428,42.97162]},"properties":{"name":"Courtaou de la Lit","url":"http:\/\/www.pyrenees-refuges.com\/fr\/affiche.php?numenr=445","photo":"lit1.jpg","region":"Bagn\u00e8res-de-Bigorre","altitude":"1500","cap_ete":"7","cap_hiver":"7","type_hebergement":"cabane ouverte"}},{"type":"Feature","geometry":{"type":"Point","coordinates":[1.4516667,42.921389]},"properties":{"name":"Cabane du Pont de Freychenet","url":"http:\/\/www.pyrenees-refuges.com\/fr\/affiche.php?numenr=965","photo":"965_1309443246.jpg","region":"Boussenac","altitude":"1055","cap_ete":"6","cap_hiver":"6","type_hebergement":"cabane ouverte"}},{"type":"Feature","geometry":{"type":"Point","coordinates":[1.68767347,42.6976163]},"properties":{"name":"Cabane de la Jasse des Galis","url":"http:\/\/www.pyrenees-refuges.com\/fr\/affiche.php?numenr=149","photo":"jassesdesgalis.jpg","region":"Aston","altitude":"1226","cap_ete":"5","cap_hiver":"5","type_hebergement":"cabane ouverte"}},{"type":"Feature","geometry":{"type":"Point","coordinates":[1.49727344,42.7034113]},"properties":{"name":"Orri de La Coume (Izourt)","url":"http:\/\/www.pyrenees-refuges.com\/fr\/affiche.php?numenr=176","photo":"orriizourt.jpg","region":"Auzat","altitude":"1520","cap_ete":"2","cap_hiver":"2","type_hebergement":"orri toue abri en pierre"}},{"type":"Feature","geometry":{"type":"Point","coordinates":[-0.20505,42.89975]},"properties":{"name":"Cabane Arriousec","url":"http:\/\/www.pyrenees-refuges.com\/fr\/affiche.php?numenr=417","photo":"417_1203885391.jpg","region":"Estaing","altitude":"1400","cap_ete":"0","cap_hiver":"8","type_hebergement":"cabane fermee"}},{"type":"Feature","geometry":{"type":"Point","coordinates":[0.471666,42.853333]},"properties":{"name":"Cabane Col de Louron (ou Coume de Baque)","url":"http:\/\/www.pyrenees-refuges.com\/fr\/affiche.php?numenr=486","photo":"486_1229891265.jpg","region":"Bourg-d'Oueil","altitude":"1873","cap_ete":"4","cap_hiver":"4","type_hebergement":"cabane ouverte"}},{"type":"Feature","geometry":{"type":"Point","coordinates":[0.86637413,42.8852275]},"properties":{"name":"Refuge Col de l'Herbe Soulette","url":"http:\/\/www.pyrenees-refuges.com\/fr\/affiche.php?numenr=550","photo":"herbe_soulette.jpg","region":"Saint-Lary","altitude":"1586","cap_ete":"5","cap_hiver":"5","type_hebergement":"cabane ouverte"}},{"type":"Feature","geometry":{"type":"Point","coordinates":[1.00450441,42.8286477]},"properties":{"name":"Cabane Clot du Lac","url":"http:\/\/www.pyrenees-refuges.com\/fr\/affiche.php?numenr=551","photo":"551_1541764222.jpg","region":"Bonac-Irazein","altitude":"1828","cap_ete":"6","cap_hiver":"6","type_hebergement":"cabane ouverte"}},{"type":"Feature","geometry":{"type":"Point","coordinates":[-0.072098,42.738676]},"properties":{"name":"Cabane Sausse Dessus","url":"http:\/\/www.pyrenees-refuges.com\/fr\/affiche.php?numenr=466","photo":"466_1219677794.jpg","region":"Gavarnie-G\u00e8dre","altitude":"1900","cap_ete":"2","cap_hiver":"2","type_hebergement":"cabane ouverte"}},{"type":"Feature","geometry":{"type":"Point","coordinates":[1.55811771,42.9156391]},"properties":{"name":"Cabane Bladas","url":"http:\/\/www.pyrenees-refuges.com\/fr\/affiche.php?numenr=595","photo":"595_1207918094.jpg","region":"Ganac","altitude":"1347","cap_ete":"4 sur sol beton","cap_hiver":"4 sur sol beton","type_hebergement":"cabane ouverte"}},{"type":"Feature","geometry":{"type":"Point","coordinates":[1.669428,42.717286]},"properties":{"name":"Cabane Clarans","url":"http:\/\/www.pyrenees-refuges.com\/fr\/affiche.php?numenr=617","photo":"clarans.jpg","region":"Aston","altitude":"1100","cap_ete":"3","cap_hiver":"3","type_hebergement":"cabane ouverte"}},{"type":"Feature","geometry":{"type":"Point","coordinates":[1.7836111,42.551111]},"properties":{"name":"Cabane Mine","url":"http:\/\/www.pyrenees-refuges.com\/fr\/affiche.php?numenr=628","photo":"628_1210766074.jpg","region":"Port\u00e9-Puymorens","altitude":"2133","cap_ete":"2","cap_hiver":"2","type_hebergement":"cabane fermee"}},{"type":"Feature","geometry":{"type":"Point","coordinates":[1.96612532,42.6783842]},"properties":{"name":"Cabane Jasse de Seys","url":"http:\/\/www.pyrenees-refuges.com\/fr\/affiche.php?numenr=638","photo":"638_1320316801.jpg","region":"Orlu","altitude":"2019","cap_ete":"4","cap_hiver":"4","type_hebergement":"cabane ouverte"}},{"type":"Feature","geometry":{"type":"Point","coordinates":[-0.528675,42.863213]},"properties":{"name":"Cabane de Sauquet","url":"http:\/\/www.pyrenees-refuges.com\/fr\/affiche.php?numenr=851","photo":"sauquet.jpg","region":"Accous","altitude":"1466","cap_ete":"4","cap_hiver":"4","type_hebergement":"cabane ouverte"}},{"type":"Feature","geometry":{"type":"Point","coordinates":[-0.1673901,42.8466084]},"properties":{"name":"Cabane du Marcadau","url":"http:\/\/www.pyrenees-refuges.com\/fr\/affiche.php?numenr=216","photo":"marcadau.jpg","region":"Cauterets","altitude":"1621","cap_ete":"4","cap_hiver":"4","type_hebergement":"cabane ouverte"}},{"type":"Feature","geometry":{"type":"Point","coordinates":[1.24273744,42.7411286]},"properties":{"name":"Cabane d'Arrech","url":"http:\/\/www.pyrenees-refuges.com\/fr\/affiche.php?numenr=855","photo":"855_1473616270.jpg","region":"Ustou","altitude":"1777","cap_ete":"2","cap_hiver":"2","type_hebergement":"cabane ouverte mais ocupee par le berger l ete"}},{"type":"Feature","geometry":{"type":"Point","coordinates":[0.64959,42.84008]},"properties":{"name":"Cabane de Ourdi\u00e8s","url":"http:\/\/www.pyrenees-refuges.com\/fr\/affiche.php?numenr=864","photo":"864_1462836166.jpg","region":"Gouaux-de-Luchon","altitude":"1770","cap_ete":"4","cap_hiver":"4","type_hebergement":"cabane ouverte"}},{"type":"Feature","geometry":{"type":"Point","coordinates":[0.48638359,42.758395]},"properties":{"name":"Cabane d'Esquierry 1650m","url":"http:\/\/www.pyrenees-refuges.com\/fr\/affiche.php?numenr=128","photo":"esquierry.jpg","region":"O\u00f4","altitude":"1650","cap_ete":"4","cap_hiver":"4","type_hebergement":"cabane ouverte"}},{"type":"Feature","geometry":{"type":"Point","coordinates":[1.15166074,42.7436129]},"properties":{"name":"Cabane Pouill","url":"http:\/\/www.pyrenees-refuges.com\/fr\/affiche.php?numenr=573","photo":"573_1496863984.jpg","region":"Couflens","altitude":"1550","cap_ete":"8","cap_hiver":"8","type_hebergement":"cabane ouverte"}},{"type":"Feature","geometry":{"type":"Point","coordinates":[1.68602076,42.6821592]},"properties":{"name":"Cabane de S\u00e8nard","url":"http:\/\/www.pyrenees-refuges.com\/fr\/affiche.php?numenr=717","photo":"senard.jpg","region":"Aston","altitude":"1874","cap_ete":"10","cap_hiver":"10","type_hebergement":"cabane ouverte"}},{"type":"Feature","geometry":{"type":"Point","coordinates":[0.2463888,42.705]},"properties":{"name":"Refuge de Trigoniero (Plana el Cabo)","url":"http:\/\/www.pyrenees-refuges.com\/fr\/affiche.php?numenr=731","photo":"trigoniero.jpg","region":"Bielsa","altitude":"1950","cap_ete":"6","cap_hiver":"6","type_hebergement":"cabane ouverte"}},{"type":"Feature","geometry":{"type":"Point","coordinates":[0.47155939,42.853368]},"properties":{"name":"Cabane de Fousserette","url":"http:\/\/www.pyrenees-refuges.com\/fr\/affiche.php?numenr=865","photo":"fousserette.jpg","region":"Bourg-d'Oueil","altitude":"1879","cap_ete":"4","cap_hiver":"4","type_hebergement":"cabane ouverte"}},{"type":"Feature","geometry":{"type":"Point","coordinates":[1.30637,42.70389999]},"properties":{"name":"Refuge de Certascan","url":"http:\/\/www.pyrenees-refuges.com\/fr\/affiche.php?numenr=660","photo":"certascan.jpg","region":"Lladorre","altitude":"2240","cap_ete":"40","cap_hiver":"20","type_hebergement":"cabane ouverte"}},{"type":"Feature","geometry":{"type":"Point","coordinates":[0.31464457511902,42.555870130072]},"properties":{"name":"Cabane de Llavasar","url":"http:\/\/www.pyrenees-refuges.com\/fr\/affiche.php?numenr=727","photo":"llavasar.jpg","region":"Plan","altitude":"1910","cap_ete":"6","cap_hiver":"6","type_hebergement":"cabane ouverte"}},{"type":"Feature","geometry":{"type":"Point","coordinates":[0.0430555,43.023611]},"properties":{"name":"Cabane du Couret","url":"http:\/\/www.pyrenees-refuges.com\/fr\/affiche.php?numenr=1084","photo":"2001_1233514066.jpg","region":"Gazost","altitude":"1485","cap_ete":"4","cap_hiver":"4","type_hebergement":"cabane ouverte"}},{"type":"Feature","geometry":{"type":"Point","coordinates":[2.04555245,42.5553375]},"properties":{"name":"Abri de La Jasse de Bernardi","url":"http:\/\/www.pyrenees-refuges.com\/fr\/affiche.php?numenr=60","photo":"bernardi.jpg","region":"Les Angles","altitude":"1930","cap_ete":"3","cap_hiver":"3","type_hebergement":"cabane ouverte"}},{"type":"Feature","geometry":{"type":"Point","coordinates":[1.75784468,42.5665146]},"properties":{"name":"Cabane du Pla de la Vaca Morta","url":"http:\/\/www.pyrenees-refuges.com\/fr\/affiche.php?numenr=986","photo":"2000_1219309034.jpg","region":"Canillo","altitude":"1768","cap_ete":"2","cap_hiver":"2","type_hebergement":"cabane ouverte"}},{"type":"Feature","geometry":{"type":"Point","coordinates":[-0.6287547,42.8561683]},"properties":{"name":"Cabane de Spelunguette","url":"http:\/\/www.pyrenees-refuges.com\/fr\/affiche.php?numenr=305","photo":"305_1432676977.jpg","region":"Ans","altitude":"","cap_ete":"0","cap_hiver":"0","type_hebergement":"cabane ouverte"}},{"type":"Feature","geometry":{"type":"Point","coordinates":[1.12018104,42.7976911]},"properties":{"name":"Cabane de l'Artigues","url":"http:\/\/www.pyrenees-refuges.com\/fr\/affiche.php?numenr=921","photo":"921_1216328861.jpg","region":"Seix","altitude":"1053","cap_ete":"0","cap_hiver":"0","type_hebergement":"cabane ouverte"}},{"type":"Feature","geometry":{"type":"Point","coordinates":[0.238888,43.01389]},"properties":{"name":"Cabane de Cot Dessus","url":"http:\/\/www.pyrenees-refuges.com\/fr\/affiche.php?numenr=1054","photo":"1054_1379255858.jpg","region":"Asque","altitude":"1395","cap_ete":"11","cap_hiver":"11","type_hebergement":"cabane ouverte"}},{"type":"Feature","geometry":{"type":"Point","coordinates":[0.03494128,42.9538512]},"properties":{"name":"Refuge d'Ouscouaou","url":"http:\/\/www.pyrenees-refuges.com\/fr\/affiche.php?numenr=241","photo":"cab_Ouscouaou2.jpg","region":"Beaucens","altitude":"1872","cap_ete":"4","cap_hiver":"4","type_hebergement":"cabane ouverte"}},{"type":"Feature","geometry":{"type":"Point","coordinates":[1.87633066,42.6823892]},"properties":{"name":"Cabane du Ressec du Bas","url":"http:\/\/www.pyrenees-refuges.com\/fr\/affiche.php?numenr=285","photo":"ressec_du_bas.jpg","region":"Orgeix","altitude":"1280","cap_ete":"0","cap_hiver":"0","type_hebergement":"cabane ouverte"}},{"type":"Feature","geometry":{"type":"Point","coordinates":[-0.42722,42.864722]},"properties":{"name":"Cabane de Magnabaigt","url":"http:\/\/www.pyrenees-refuges.com\/fr\/affiche.php?numenr=756","photo":"magnabaigt.jpg","region":"Laruns","altitude":"1650","cap_ete":"0","cap_hiver":"0","type_hebergement":"cabane ouverte"}},{"type":"Feature","geometry":{"type":"Point","coordinates":[-0.451666,42.872222]},"properties":{"name":"Cabane de Bious Oumette","url":"http:\/\/www.pyrenees-refuges.com\/fr\/affiche.php?numenr=776","photo":"776_1287429201.jpg","region":"Laruns","altitude":"1300","cap_ete":"8","cap_hiver":"8","type_hebergement":"cabane ouverte mais ocupee par le berger l ete"}},{"type":"Feature","geometry":{"type":"Point","coordinates":[0.24718,42.93113]},"properties":{"name":"Cabane des Esclozes","url":"http:\/\/www.pyrenees-refuges.com\/fr\/affiche.php?numenr=884","photo":"esclozeext\u00e9rieur.jpg","region":"Campan","altitude":"1340","cap_ete":"10","cap_hiver":"10","type_hebergement":"cabane ouverte"}},{"type":"Feature","geometry":{"type":"Point","coordinates":[0.14427145,42.7344335]},"properties":{"name":"Refuge de Barroude","url":"http:\/\/www.pyrenees-refuges.com\/fr\/affiche.php?numenr=46","photo":"46_1287429535.jpg","region":"Aragnouet","altitude":"2373","cap_ete":"0","cap_hiver":"0","type_hebergement":"ruine"}},{"type":"Feature","geometry":{"type":"Point","coordinates":[1.30545,42.73251]},"properties":{"name":"Refuge de La Hillette","url":"http:\/\/www.pyrenees-refuges.com\/fr\/affiche.php?numenr=163","photo":"illhette.jpg","region":"Ustou","altitude":"1824","cap_ete":"8","cap_hiver":"8","type_hebergement":"cabane ouverte"}},{"type":"Feature","geometry":{"type":"Point","coordinates":[-0.469444,42.724722]},"properties":{"name":"Refuge de embalse de Ip","url":"http:\/\/www.pyrenees-refuges.com\/fr\/affiche.php?numenr=1186","photo":"2002_1303069993.jpg","region":"Canfranc","altitude":"2070","cap_ete":"6","cap_hiver":"6","type_hebergement":"cabane ouverte mais ocupee par le berger l ete"}},{"type":"Feature","geometry":{"type":"Point","coordinates":[0.17803313,42.8210502]},"properties":{"name":"Orri des Myrtilles","url":"http:\/\/www.pyrenees-refuges.com\/fr\/affiche.php?numenr=1248","photo":"2000_1387180346.jpg","region":"Aragnouet","altitude":"1750","cap_ete":"2","cap_hiver":"2","type_hebergement":"orri toue abri en pierre"}},{"type":"Feature","geometry":{"type":"Point","coordinates":[1.4146,42.7813]},"properties":{"name":"Cabane de Carol","url":"http:\/\/www.pyrenees-refuges.com\/fr\/affiche.php?numenr=606","photo":"carol.jpg","region":"Auzat","altitude":"1525","cap_ete":"3","cap_hiver":"3","type_hebergement":"cabane ouverte"}},{"type":"Feature","geometry":{"type":"Point","coordinates":[0.51271,42.78376999]},"properties":{"name":"Cabane de Baguergue inferieure","url":"http:\/\/www.pyrenees-refuges.com\/fr\/affiche.php?numenr=1447","photo":"2000_1483206676.jpg","region":"O\u00f4","altitude":"1200","cap_ete":"2","cap_hiver":"2","type_hebergement":"cabane ouverte"}},{"type":"Feature","geometry":{"type":"Point","coordinates":[1.3571667,42.744833]},"properties":{"name":"Cabane de la Hille de l Etang (Ars)","url":"http:\/\/www.pyrenees-refuges.com\/fr\/affiche.php?numenr=568","photo":"568_1346958293.jpg","region":"Aulus-les-Bains","altitude":"1695","cap_ete":"8","cap_hiver":"8","type_hebergement":"cabane ouverte"}},{"type":"Feature","geometry":{"type":"Point","coordinates":[1.57189208,42.7246442]},"properties":{"name":"Cabane de Pinardel (etang)","url":"http:\/\/www.pyrenees-refuges.com\/fr\/affiche.php?numenr=896","photo":"896_1208519393.jpg","region":"Gesti\u00e8s","altitude":"1846","cap_ete":"0","cap_hiver":"0","type_hebergement":"cabane ouverte"}},{"type":"Feature","geometry":{"type":"Point","coordinates":[2.05279698,42.6012873]},"properties":{"name":"Cabane de La Jasse de Ganyades","url":"http:\/\/www.pyrenees-refuges.com\/fr\/affiche.php?numenr=150","photo":"ganyades.jpg","region":"Les Angles","altitude":"1850","cap_ete":"10","cap_hiver":"10","type_hebergement":"cabane ouverte"}},{"type":"Feature","geometry":{"type":"Point","coordinates":[0.68189485,42.7168288]},"properties":{"name":"Cabane de la Flache de Roumingau","url":"http:\/\/www.pyrenees-refuges.com\/fr\/affiche.php?numenr=925","photo":"1006_1200492392.jpg","region":"es B","altitude":"1940","cap_ete":"0","cap_hiver":"6","type_hebergement":"cabane fermee"}},{"type":"Feature","geometry":{"type":"Point","coordinates":[1.3866,42.7043]},"properties":{"name":"Cabane de Picou Stele","url":"http:\/\/www.pyrenees-refuges.com\/fr\/affiche.php?numenr=1440","photo":"2000_1478261377.jpg","region":"Auzat","altitude":"2263","cap_ete":"","cap_hiver":"","type_hebergement":"cabane ouverte"}},{"type":"Feature","geometry":{"type":"Point","coordinates":[0.68186124,42.8651444]},"properties":{"name":"Cabane Courraus","url":"http:\/\/www.pyrenees-refuges.com\/fr\/affiche.php?numenr=502","photo":"502_1198135452.jpg","region":"Arlos","altitude":"1586","cap_ete":"10","cap_hiver":"10","type_hebergement":"cabane ouverte"}},{"type":"Feature","geometry":{"type":"Point","coordinates":[1.57034524,42.671241]},"properties":{"name":"Cabane de Peyregrand","url":"http:\/\/www.pyrenees-refuges.com\/fr\/affiche.php?numenr=251","photo":"peyregrand.jpg","region":"Gesti\u00e8s","altitude":"1931","cap_ete":"4","cap_hiver":"4","type_hebergement":"cabane ouverte"}},{"type":"Feature","geometry":{"type":"Point","coordinates":[1.59125311,42.69209029]},"properties":{"name":"Cabane de la Unarde","url":"http:\/\/www.pyrenees-refuges.com\/fr\/affiche.php?numenr=319","photo":"319_1195638955.jpg","region":"Gesti\u00e8s","altitude":"2230","cap_ete":"0","cap_hiver":"0","type_hebergement":"cabane fermee"}},{"type":"Feature","geometry":{"type":"Point","coordinates":[0.21461068,42.7738612]},"properties":{"name":"Cabane Cortail de Prat","url":"http:\/\/www.pyrenees-refuges.com\/fr\/affiche.php?numenr=473","photo":"473_1199188335.jpg","region":"Aragnouet","altitude":"1820","cap_ete":"4","cap_hiver":"4","type_hebergement":"cabane ouverte"}},{"type":"Feature","geometry":{"type":"Point","coordinates":[1.3749,42.7093]},"properties":{"name":"Orry des Legunes d'En Bas","url":"http:\/\/www.pyrenees-refuges.com\/fr\/affiche.php?numenr=1441","photo":"2001_1478261635.jpg","region":"Auzat","altitude":"1900","cap_ete":"","cap_hiver":"","type_hebergement":"orri toue abri en pierre"}},{"type":"Feature","geometry":{"type":"Point","coordinates":[2.0494444,42.6175]},"properties":{"name":"Refuge de Liadura","url":"http:\/\/www.pyrenees-refuges.com\/fr\/affiche.php?numenr=203","photo":"203_1485846320.jpg","region":"Formigu\u00e8res","altitude":"1766","cap_ete":"4","cap_hiver":"0","type_hebergement":"cabane ouverte"}},{"type":"Feature","geometry":{"type":"Point","coordinates":[-0.35,43.0489]},"properties":{"name":"Cabanon de S\u00e9bouille","url":"http:\/\/www.pyrenees-refuges.com\/fr\/affiche.php?numenr=936","photo":"1003_1202930047.jpg","region":"Castet","altitude":"1357","cap_ete":"2","cap_hiver":"2","type_hebergement":"cabane ouverte"}},{"type":"Feature","geometry":{"type":"Point","coordinates":[1.7599,42.51789999]},"properties":{"name":"Cabane de Font-Negra","url":"http:\/\/www.pyrenees-refuges.com\/fr\/affiche.php?numenr=1442","photo":"2002_1478262099.jpg","region":"Porta","altitude":"2490","cap_ete":"","cap_hiver":"","type_hebergement":"cabane fermee"}},{"type":"Feature","geometry":{"type":"Point","coordinates":[2.37212006,42.4212325]},"properties":{"name":"Cabane de l Ouillat","url":"http:\/\/www.pyrenees-refuges.com\/fr\/affiche.php?numenr=386","photo":"386_1242060217.jpg","region":"Prats-de-Mollo-la-Preste","altitude":"1610","cap_ete":"3","cap_hiver":"3","type_hebergement":"cabane ouverte mais ocupee par le berger l ete"}},{"type":"Feature","geometry":{"type":"Point","coordinates":[1.4883333,42.858056]},"properties":{"name":"Cabane de Menti\u00e8s","url":"http:\/\/www.pyrenees-refuges.com\/fr\/affiche.php?numenr=785","photo":"785_1209389017.jpg","region":"Rabat-les-Trois-Seigneurs","altitude":"1525","cap_ete":"0","cap_hiver":"0","type_hebergement":"cabane fermee"}},{"type":"Feature","geometry":{"type":"Point","coordinates":[1.845556,42.68]},"properties":{"name":"Chalet forestier de Courtal-Jouan","url":"http:\/\/www.pyrenees-refuges.com\/fr\/affiche.php?numenr=956","photo":"1009_1212137768.jpg","region":"M\u00e9rens-les-Vals","altitude":"","cap_ete":"0","cap_hiver":"0","type_hebergement":"cabane ouverte"}},{"type":"Feature","geometry":{"type":"Point","coordinates":[2.0519444,42.588056]},"properties":{"name":"Cabane de Vallserra","url":"http:\/\/www.pyrenees-refuges.com\/fr\/affiche.php?numenr=321","photo":"vallserra_cab.jpg","region":"Les Angles","altitude":"1770","cap_ete":"0","cap_hiver":"0","type_hebergement":"cabane ouverte mais ocupee par le berger l ete"}},{"type":"Feature","geometry":{"type":"Point","coordinates":[-0.1606,43.03385]},"properties":{"name":"Refuge du col d'Andorre","url":"http:\/\/www.pyrenees-refuges.com\/fr\/affiche.php?numenr=890","photo":"colandorre001.jpg","region":"Salles","altitude":"1440","cap_ete":"10","cap_hiver":"10","type_hebergement":"cabane ouverte"}},{"type":"Feature","geometry":{"type":"Point","coordinates":[0.9088888,42.819167]},"properties":{"name":"Refuge de Sans","url":"http:\/\/www.pyrenees-refuges.com\/fr\/affiche.php?numenr=944","photo":"refugesansphoto.jpg","region":"Sentein","altitude":"1563","cap_ete":"6","cap_hiver":"6","type_hebergement":"cabane ouverte"}},{"type":"Feature","geometry":{"type":"Point","coordinates":[-0.65771,43.01932]},"properties":{"name":"Cabane de Touroun","url":"http:\/\/www.pyrenees-refuges.com\/fr\/affiche.php?numenr=1451","photo":"2002_1483386281.jpg","region":"Lourdios-Ich\u00e8re","altitude":"","cap_ete":"0","cap_hiver":"2","type_hebergement":"cabane ouverte"}},{"type":"Feature","geometry":{"type":"Point","coordinates":[0.05387516,42.94531529]},"properties":{"name":"Cabane d'Ourrec","url":"http:\/\/www.pyrenees-refuges.com\/fr\/affiche.php?numenr=447","photo":"1cab_Ourrec2.jpg","region":"Beaucens","altitude":"1780","cap_ete":"2","cap_hiver":"2","type_hebergement":"cabane ouverte"}},{"type":"Feature","geometry":{"type":"Point","coordinates":[0.16124,42.93242999]},"properties":{"name":"Cabane de Pene Blanque","url":"http:\/\/www.pyrenees-refuges.com\/fr\/affiche.php?numenr=772","photo":"pene_blanque.jpg","region":"Bagn\u00e8res-de-Bigorre","altitude":"1890","cap_ete":"2","cap_hiver":"2","type_hebergement":"cabane ouverte"}},{"type":"Feature","geometry":{"type":"Point","coordinates":[-0.90483,42.98857]},"properties":{"name":"Cayolar d'Olhadubi","url":"http:\/\/www.pyrenees-refuges.com\/fr\/affiche.php?numenr=1252","photo":"2000_1396216145.jpg","region":"Larrau","altitude":"850","cap_ete":"4","cap_hiver":"4","type_hebergement":"cabane ouverte"}},{"type":"Feature","geometry":{"type":"Point","coordinates":[2.44491643,42.503919]},"properties":{"name":"refuge Arago","url":"http:\/\/www.pyrenees-refuges.com\/fr\/affiche.php?numenr=19","photo":"19_1519320456.jpg","region":"Casteil","altitude":"2136","cap_ete":"6","cap_hiver":"6","type_hebergement":"cabane ouverte"}},{"type":"Feature","geometry":{"type":"Point","coordinates":[-1.6149538,43.2557971]},"properties":{"name":"Cabane d'Usategieta","url":"http:\/\/www.pyrenees-refuges.com\/fr\/affiche.php?numenr=1420","photo":"20200521_923525.jpg","region":"Etxalar","altitude":"463","cap_ete":"2","cap_hiver":"2","type_hebergement":"cabane ouverte"}},{"type":"Feature","geometry":{"type":"Point","coordinates":[-0.63874,43.01657]},"properties":{"name":"Cabane d'Arr\u00e8s","url":"http:\/\/www.pyrenees-refuges.com\/fr\/affiche.php?numenr=1452","photo":"2001_1483385694.jpg","region":"Osse-en-Aspe","altitude":"1350","cap_ete":"2","cap_hiver":"2","type_hebergement":"cabane ouverte"}},{"type":"Feature","geometry":{"type":"Point","coordinates":[1.96515783,42.6584444]},"properties":{"name":"Cabane d'En Gaudu","url":"http:\/\/www.pyrenees-refuges.com\/fr\/affiche.php?numenr=116","photo":"en_gaudu.jpg","region":"Orlu","altitude":"1380","cap_ete":"2","cap_hiver":"2","type_hebergement":"cabane ouverte"}},{"type":"Feature","geometry":{"type":"Point","coordinates":[1.0328,42.8301]},"properties":{"name":"Refuge du Pla de La Lau","url":"http:\/\/www.pyrenees-refuges.com\/fr\/affiche.php?numenr=260","photo":"cab_pla_lalau2.jpg","region":"Bordes-Uchentein","altitude":"930","cap_ete":"8","cap_hiver":"8","type_hebergement":"cabane ouverte"}},{"type":"Feature","geometry":{"type":"Point","coordinates":[-0.1377199,42.8239358]},"properties":{"name":"Cabane Pinet (Lac de Gaube)","url":"http:\/\/www.pyrenees-refuges.com\/fr\/affiche.php?numenr=454","photo":"pinet_gaube.jpg","region":"Cauterets","altitude":"1783","cap_ete":"6","cap_hiver":"6","type_hebergement":"cabane ouverte"}},{"type":"Feature","geometry":{"type":"Point","coordinates":[-0.63874,43.01657]},"properties":{"name":"Cabane d'Arr\u00e8s","url":"http:\/\/www.pyrenees-refuges.com\/fr\/affiche.php?numenr=1453","photo":"2001_1483385694.jpg","region":"Osse-en-Aspe","altitude":"1350","cap_ete":"2","cap_hiver":"2","type_hebergement":"cabane ouverte"}},{"type":"Feature","geometry":{"type":"Point","coordinates":[1.81894416,42.5917315]},"properties":{"name":"Refuge forestier d'Espousouillette","url":"http:\/\/www.pyrenees-refuges.com\/fr\/affiche.php?numenr=1421","photo":"refugesansphoto.jpg","region":"M\u00e9rens-les-Vals","altitude":"2130","cap_ete":"1","cap_hiver":"1","type_hebergement":"cabane ouverte"}},{"type":"Feature","geometry":{"type":"Point","coordinates":[-0.0454624,42.7099204]},"properties":{"name":"Cabane des Soldats","url":"http:\/\/www.pyrenees-refuges.com\/fr\/affiche.php?numenr=302","photo":"302_1216755495.jpg","region":"Gavarnie-G\u00e8dre","altitude":"1954","cap_ete":"4","cap_hiver":"4","type_hebergement":"cabane ouverte"}},{"type":"Feature","geometry":{"type":"Point","coordinates":[-0.5116926,42.9557227]},"properties":{"name":"Cabane Laiterine","url":"http:\/\/www.pyrenees-refuges.com\/fr\/affiche.php?numenr=431","photo":"431_1216753155.jpg","region":"Accous","altitude":"1680","cap_ete":"6","cap_hiver":"6","type_hebergement":"cabane ouverte"}},{"type":"Feature","geometry":{"type":"Point","coordinates":[0.58956,42.85317]},"properties":{"name":"Cabane de S\u00e9ridet","url":"http:\/\/www.pyrenees-refuges.com\/fr\/affiche.php?numenr=1454","photo":"2003_1483820875.jpg","region":"Cier-de-Luchon","altitude":"","cap_ete":"0","cap_hiver":"0","type_hebergement":"ruine"}},{"type":"Feature","geometry":{"type":"Point","coordinates":[-0.588103,42.809177]},"properties":{"name":"Cabane de Espelungu\u00e9re","url":"http:\/\/www.pyrenees-refuges.com\/fr\/affiche.php?numenr=120","photo":"120_1222257479.jpg","region":"Ans","altitude":"1413","cap_ete":"4","cap_hiver":"4","type_hebergement":"cabane ouverte mais ocupee par le berger l ete"}},{"type":"Feature","geometry":{"type":"Point","coordinates":[0.44483,42.93090999]},"properties":{"name":"Cabane Col de l'Aouet","url":"http:\/\/www.pyrenees-refuges.com\/fr\/affiche.php?numenr=477","photo":"477_1321516883.jpg","region":"Ferr\u00e8re","altitude":"1620","cap_ete":"0","cap_hiver":"0","type_hebergement":"cabane fermee"}},{"type":"Feature","geometry":{"type":"Point","coordinates":[1.4686111,42.885278]},"properties":{"name":"Maison forestiere de Sauzet","url":"http:\/\/www.pyrenees-refuges.com\/fr\/affiche.php?numenr=964","photo":"964_1222244871.jpg","region":"Saurat","altitude":"1277","cap_ete":"0","cap_hiver":"0","type_hebergement":"cabane fermee"}},{"type":"Feature","geometry":{"type":"Point","coordinates":[-0.599722,42.834167]},"properties":{"name":"Cabane de Caillaous","url":"http:\/\/www.pyrenees-refuges.com\/fr\/affiche.php?numenr=998","photo":"998_1471786242.jpg","region":"Ans","altitude":"1877","cap_ete":"5","cap_hiver":"5","type_hebergement":"cabane ouverte"}},{"type":"Feature","geometry":{"type":"Point","coordinates":[0.75890416,42.9531435]},"properties":{"name":"Cabane de Juzet","url":"http:\/\/www.pyrenees-refuges.com\/fr\/affiche.php?numenr=184","photo":"184_1236086309.jpg","region":"Sengouagnet","altitude":"1357","cap_ete":"10","cap_hiver":"10","type_hebergement":"cabane ouverte"}},{"type":"Feature","geometry":{"type":"Point","coordinates":[-0.598172,42.835909]},"properties":{"name":"Cabane de Lurbe","url":"http:\/\/www.pyrenees-refuges.com\/fr\/affiche.php?numenr=213","photo":"213_1222256589.jpg","region":"Ans","altitude":"1845","cap_ete":"0","cap_hiver":"0","type_hebergement":"cabane ouverte mais ocupee par le berger l ete"}},{"type":"Feature","geometry":{"type":"Point","coordinates":[-0.3830239,42.8354787]},"properties":{"name":"Cabane du Caillou de Soques","url":"http:\/\/www.pyrenees-refuges.com\/fr\/affiche.php?numenr=780","photo":"780_1230747587.jpg","region":"Sallent de G","altitude":"1399","cap_ete":"4","cap_hiver":"4","type_hebergement":"cabane ouverte"}},{"type":"Feature","geometry":{"type":"Point","coordinates":[1.70305998,42.6489441]},"properties":{"name":"Cabane du Plat des Peyres (Pla de las Peyres)","url":"http:\/\/www.pyrenees-refuges.com\/fr\/affiche.php?numenr=198","photo":"las_peyres.jpg","region":"Aston","altitude":"1696","cap_ete":"6","cap_hiver":"6","type_hebergement":"cabane ouverte"}},{"type":"Feature","geometry":{"type":"Point","coordinates":[1.4486111,42.89972199]},"properties":{"name":"Refuge Eaux & For\u00eats du Col de Port","url":"http:\/\/www.pyrenees-refuges.com\/fr\/affiche.php?numenr=1048","photo":"2000_1230896051.jpg","region":"Boussenac","altitude":"1190","cap_ete":"4","cap_hiver":"4","type_hebergement":"cabane ouverte"}},{"type":"Feature","geometry":{"type":"Point","coordinates":[-0.0383736,42.8074232]},"properties":{"name":"Cabane de Cestrede","url":"http:\/\/www.pyrenees-refuges.com\/fr\/affiche.php?numenr=89","photo":"cestrede3.jpg","region":"Luz-Saint-Sauveur","altitude":"2009","cap_ete":"0","cap_hiver":"2","type_hebergement":"cabane fermee"}},{"type":"Feature","geometry":{"type":"Point","coordinates":[-0.0940148,42.757098]},"properties":{"name":"Cabane d'Ossoue","url":"http:\/\/www.pyrenees-refuges.com\/fr\/affiche.php?numenr=237","photo":"ossoue.jpg","region":"Gavarnie-G\u00e8dre","altitude":"1834","cap_ete":"4","cap_hiver":"4","type_hebergement":"cabane ouverte"}},{"type":"Feature","geometry":{"type":"Point","coordinates":[2.23239719,42.4574391]},"properties":{"name":"Cabane de Bassib\u00e8s","url":"http:\/\/www.pyrenees-refuges.com\/fr\/affiche.php?numenr=1227","photo":"2000_1371210437.jpg","region":"Fontp\u00e9drouse","altitude":"1980","cap_ete":"10","cap_hiver":"10","type_hebergement":"cabane ouverte"}},{"type":"Feature","geometry":{"type":"Point","coordinates":[0.52764725,42.7370489]},"properties":{"name":"Cabane Nouvelle de Coume N\u00e8re","url":"http:\/\/www.pyrenees-refuges.com\/fr\/affiche.php?numenr=336","photo":"sarnes.jpg","region":"Cazeaux-de-Larboust","altitude":"2100","cap_ete":"0","cap_hiver":"6","type_hebergement":"cabane ouverte mais ocupee par le berger l ete"}},{"type":"Feature","geometry":{"type":"Point","coordinates":[1.90009201,42.5740101]},"properties":{"name":"Maison des Ingenieurs du Lanoux","url":"http:\/\/www.pyrenees-refuges.com\/fr\/affiche.php?numenr=357","photo":"357_1200675378.jpg","region":"Angoustrine-Villeneuve-des-Esc","altitude":"2133","cap_ete":"12","cap_hiver":"12","type_hebergement":"cabane ouverte"}},{"type":"Feature","geometry":{"type":"Point","coordinates":[0.04923279,42.7295053]},"properties":{"name":"Cabane Estaube","url":"http:\/\/www.pyrenees-refuges.com\/fr\/affiche.php?numenr=460","photo":"estaube.jpg","region":"Gavarnie-G\u00e8dre","altitude":"1765","cap_ete":"8","cap_hiver":"8","type_hebergement":"cabane ouverte"}},{"type":"Feature","geometry":{"type":"Point","coordinates":[0.0486111,43.02]},"properties":{"name":"Cabane Noire du Cuq Cr\u00e9mail","url":"http:\/\/www.pyrenees-refuges.com\/fr\/affiche.php?numenr=1085","photo":"2002_1233514296.jpg","region":"Gazost","altitude":"1544","cap_ete":"0","cap_hiver":"0","type_hebergement":"cabane fermee"}},{"type":"Feature","geometry":{"type":"Point","coordinates":[1.55324713,42.70268449]},"properties":{"name":"Cabane de Neych","url":"http:\/\/www.pyrenees-refuges.com\/fr\/affiche.php?numenr=233","photo":"neych.jpg","region":"Siguer","altitude":"2080","cap_ete":"5","cap_hiver":"5","type_hebergement":"cabane ouverte"}},{"type":"Feature","geometry":{"type":"Point","coordinates":[2.08087267,42.395515]},"properties":{"name":"Refuge Pastoral des Planes","url":"http:\/\/www.pyrenees-refuges.com\/fr\/affiche.php?numenr=369","photo":"refugesansphoto.jpg","region":"Err","altitude":"1930","cap_ete":"4","cap_hiver":"4","type_hebergement":"cabane ouverte"}},{"type":"Feature","geometry":{"type":"Point","coordinates":[1.458889,42.869722]},"properties":{"name":"Cabane de la Doule","url":"http:\/\/www.pyrenees-refuges.com\/fr\/affiche.php?numenr=601","photo":"601_1214823860.jpg","region":"Saurat","altitude":"1301","cap_ete":"0","cap_hiver":"0","type_hebergement":"ruine"}},{"type":"Feature","geometry":{"type":"Point","coordinates":[0.69340898,42.9551222]},"properties":{"name":"Refuge du Pic du Gar","url":"http:\/\/www.pyrenees-refuges.com\/fr\/affiche.php?numenr=252","photo":"252_1239728816.jpg","region":"Moncaup","altitude":"1550","cap_ete":"8","cap_hiver":"8","type_hebergement":"cabane ouverte"}},{"type":"Feature","geometry":{"type":"Point","coordinates":[2.0424375,42.6905668]},"properties":{"name":"Refuge Forestier du Laurenti","url":"http:\/\/www.pyrenees-refuges.com\/fr\/affiche.php?numenr=199","photo":"laurenti.jpg","region":"Le Pla","altitude":"1616","cap_ete":"6","cap_hiver":"6","type_hebergement":"cabane ouverte"}},{"type":"Feature","geometry":{"type":"Point","coordinates":[0.6330555,42.869444]},"properties":{"name":"Cabane de Plagnette (Baren)","url":"http:\/\/www.pyrenees-refuges.com\/fr\/affiche.php?numenr=1035","photo":"1035_1245612702.jpg","region":"Baren","altitude":"1321","cap_ete":"4","cap_hiver":"4","type_hebergement":"cabane ouverte"}},{"type":"Feature","geometry":{"type":"Point","coordinates":[1.77012141,42.6146588]},"properties":{"name":"Abri Pedourres","url":"http:\/\/www.pyrenees-refuges.com\/fr\/affiche.php?numenr=245","photo":"pedoures1.jpg","region":"M\u00e9rens-les-Vals","altitude":"2165","cap_ete":"0","cap_hiver":"0","type_hebergement":"orri toue abri en pierre"}},{"type":"Feature","geometry":{"type":"Point","coordinates":[2.4127,42.4754]},"properties":{"name":"Abri de Pla Guillem","url":"http:\/\/www.pyrenees-refuges.com\/fr\/affiche.php?numenr=263","photo":"263_1219179578.jpg","region":"Py","altitude":"2276","cap_ete":"3","cap_hiver":"0","type_hebergement":"orri toue abri en pierre"}},{"type":"Feature","geometry":{"type":"Point","coordinates":[1.70494831,42.7156821]},"properties":{"name":"Cabane Beille den Haut","url":"http:\/\/www.pyrenees-refuges.com\/fr\/affiche.php?numenr=613","photo":"beille_haut.jpg","region":"Lassur","altitude":"1939","cap_ete":"0","cap_hiver":"0","type_hebergement":"cabane fermee"}},{"type":"Feature","geometry":{"type":"Point","coordinates":[0.809112,42.604613]},"properties":{"name":"Refuge de l'Estanyet","url":"http:\/\/www.pyrenees-refuges.com\/fr\/affiche.php?numenr=658","photo":"estanyet.jpg","region":"Vilaller","altitude":"2200","cap_ete":"18","cap_hiver":"18","type_hebergement":"cabane ouverte"}},{"type":"Feature","geometry":{"type":"Point","coordinates":[1.430228,42.9156]},"properties":{"name":"Cabane de Razels","url":"http:\/\/www.pyrenees-refuges.com\/fr\/affiche.php?numenr=1049","photo":"2001_1230896260.jpg","region":"Boussenac","altitude":"1485","cap_ete":"0","cap_hiver":"0","type_hebergement":"ruine"}},{"type":"Feature","geometry":{"type":"Point","coordinates":[1.75622196,42.5942892]},"properties":{"name":"Refuge de La Vesine","url":"http:\/\/www.pyrenees-refuges.com\/fr\/affiche.php?numenr=61","photo":"vesine.jpg","region":"M\u00e9rens-les-Vals","altitude":"2100","cap_ete":"8","cap_hiver":"8","type_hebergement":"cabane ouverte"}},{"type":"Feature","geometry":{"type":"Point","coordinates":[-0.478056,42.962222]},"properties":{"name":"Cabane de Besse","url":"http:\/\/www.pyrenees-refuges.com\/fr\/affiche.php?numenr=63","photo":"63_1248208990.jpg","region":"Laruns","altitude":"1572","cap_ete":"4","cap_hiver":"4","type_hebergement":"cabane ouverte mais ocupee par le berger l ete"}},{"type":"Feature","geometry":{"type":"Point","coordinates":[1.638781,42.618459]},"properties":{"name":"Refuge Coms de Jan","url":"http:\/\/www.pyrenees-refuges.com\/fr\/affiche.php?numenr=98","photo":"98_1251411587.jpg","region":"Canillo","altitude":"2215","cap_ete":"8","cap_hiver":"8","type_hebergement":"cabane ouverte"}},{"type":"Feature","geometry":{"type":"Point","coordinates":[1.46395131,42.7214795]},"properties":{"name":"Cabane de Prunadi\u00e8re","url":"http:\/\/www.pyrenees-refuges.com\/fr\/affiche.php?numenr=276","photo":"prunadiere.jpg","region":"Auzat","altitude":"1600","cap_ete":"0","cap_hiver":"0","type_hebergement":"cabane ouverte"}},{"type":"Feature","geometry":{"type":"Point","coordinates":[0.55386961,42.7301826]},"properties":{"name":"Mines des Crabouiles","url":"http:\/\/www.pyrenees-refuges.com\/fr\/affiche.php?numenr=665","photo":"crabouilesmines.jpg","region":"Castillon-de-Larboust","altitude":"2000","cap_ete":"0","cap_hiver":"0","type_hebergement":"orri toue abri en pierre"}},{"type":"Feature","geometry":{"type":"Point","coordinates":[-0.1495,42.7718]},"properties":{"name":"Les 3 Grottes Russell (Maison Russell)","url":"http:\/\/www.pyrenees-refuges.com\/fr\/affiche.php?numenr=685","photo":"grotte_guides.jpg","region":"Gavarnie-G\u00e8dre","altitude":"3190","cap_ete":"2","cap_hiver":"2","type_hebergement":"orri toue abri en pierre"}},{"type":"Feature","geometry":{"type":"Point","coordinates":[-0.1476,42.7737]},"properties":{"name":"Grotte Paradis","url":"http:\/\/www.pyrenees-refuges.com\/fr\/affiche.php?numenr=686","photo":"grotte_paradis.jpg","region":"Gavarnie-G\u00e8dre","altitude":"3250","cap_ete":"4","cap_hiver":"4","type_hebergement":"orri toue abri en pierre"}},{"type":"Feature","geometry":{"type":"Point","coordinates":[1.49525794,42.6081693]},"properties":{"name":"Refuge de l'Angonella","url":"http:\/\/www.pyrenees-refuges.com\/fr\/affiche.php?numenr=10","photo":"10_1308772740.jpg","region":"Ordino","altitude":"2235","cap_ete":"6","cap_hiver":"6","type_hebergement":"cabane ouverte"}},{"type":"Feature","geometry":{"type":"Point","coordinates":[2.431207,42.5055482]},"properties":{"name":"Cabane Jasse Cady","url":"http:\/\/www.pyrenees-refuges.com\/fr\/affiche.php?numenr=391","photo":"391_1433315694.jpg","region":"Casteil","altitude":"1975","cap_ete":"","cap_hiver":"4","type_hebergement":"cabane ouverte"}},{"type":"Feature","geometry":{"type":"Point","coordinates":[1.8902778,42.610556]},"properties":{"name":"Cabane de la Coume d'Anyell","url":"http:\/\/www.pyrenees-refuges.com\/fr\/affiche.php?numenr=957","photo":"1000_1212570487.jpg","region":"M\u00e9rens-les-Vals","altitude":"2350","cap_ete":"2","cap_hiver":"2","type_hebergement":"cabane ouverte"}},{"type":"Feature","geometry":{"type":"Point","coordinates":[1.1677778,42.773333]},"properties":{"name":"Cabane de Auzut","url":"http:\/\/www.pyrenees-refuges.com\/fr\/affiche.php?numenr=1077","photo":"20200518_218718.jpg","region":"Couflens","altitude":"1325","cap_ete":"8","cap_hiver":"8","type_hebergement":"cabane ouverte"}},{"type":"Feature","geometry":{"type":"Point","coordinates":[-0.28601,43.079882]},"properties":{"name":"Cabane de tachou\u00e8re","url":"http:\/\/www.pyrenees-refuges.com\/fr\/affiche.php?numenr=1114","photo":"1114_1473256668.jpg","region":"Asson","altitude":"890","cap_ete":"1","cap_hiver":"1","type_hebergement":"cabane ouverte"}},{"type":"Feature","geometry":{"type":"Point","coordinates":[1.56131386,42.6403518]},"properties":{"name":"Refuge de Rialp","url":"http:\/\/www.pyrenees-refuges.com\/fr\/affiche.php?numenr=287","photo":"rialb.jpg","region":"Ordino","altitude":"1990","cap_ete":"6","cap_hiver":"6","type_hebergement":"cabane ouverte"}},{"type":"Feature","geometry":{"type":"Point","coordinates":[0.61321616,42.7240941]},"properties":{"name":"Abri Esbas","url":"http:\/\/www.pyrenees-refuges.com\/fr\/affiche.php?numenr=503","photo":"refugesansphoto.jpg","region":"Bagn\u00e8res-de-Luchon","altitude":"1600","cap_ete":"0","cap_hiver":"0","type_hebergement":"cabane fermee"}},{"type":"Feature","geometry":{"type":"Point","coordinates":[0.49818402,42.8954735]},"properties":{"name":"Cabane de Saoubette","url":"http:\/\/www.pyrenees-refuges.com\/fr\/affiche.php?numenr=716","photo":"saoubette.jpg","region":"Ferr\u00e8re","altitude":"1250","cap_ete":"12","cap_hiver":"12","type_hebergement":"cabane ouverte"}},{"type":"Feature","geometry":{"type":"Point","coordinates":[2.1963889,42.43]},"properties":{"name":"Abri Etang La Caran\u00e7a","url":"http:\/\/www.pyrenees-refuges.com\/fr\/affiche.php?numenr=395","photo":"395_1247652905.jpg","region":"Fontp\u00e9drouse","altitude":"2264","cap_ete":"15 env ","cap_hiver":"15 env ","type_hebergement":"orri toue abri en pierre"}},{"type":"Feature","geometry":{"type":"Point","coordinates":[0.63974456,42.7418122]},"properties":{"name":"Cabane Bargueres (de Campsaure)","url":"http:\/\/www.pyrenees-refuges.com\/fr\/affiche.php?numenr=496","photo":"refugesansphoto.jpg","region":"Bagn\u00e8res-de-Luchon","altitude":"1324","cap_ete":"4","cap_hiver":"4","type_hebergement":"cabane ouverte"}},{"type":"Feature","geometry":{"type":"Point","coordinates":[1.7811111,42.8555556]},"properties":{"name":"Cabane du Vacher","url":"http:\/\/www.pyrenees-refuges.com\/fr\/affiche.php?numenr=866","photo":"vacher1.jpg","region":"Monts\u00e9gur","altitude":"1572","cap_ete":"2","cap_hiver":"2","type_hebergement":"cabane ouverte"}},{"type":"Feature","geometry":{"type":"Point","coordinates":[0.88386094,42.9574295]},"properties":{"name":"Cabane de Cornudere","url":"http:\/\/www.pyrenees-refuges.com\/fr\/affiche.php?numenr=929","photo":"929_1269257680.jpg","region":"Galey","altitude":"1500","cap_ete":"4","cap_hiver":"4","type_hebergement":"cabane ouverte"}},{"type":"Feature","geometry":{"type":"Point","coordinates":[1.8872,42.75419999]},"properties":{"name":"Cabane Sorgeat (ex : Apailladou)","url":"http:\/\/www.pyrenees-refuges.com\/fr\/affiche.php?numenr=1133","photo":"1133_1439061933.jpg","region":"Sorgeat","altitude":"1570","cap_ete":"0","cap_hiver":"0","type_hebergement":"cabane ouverte"}},{"type":"Feature","geometry":{"type":"Point","coordinates":[1.6917,42.2819]},"properties":{"name":"Cortal dels Cortils","url":"http:\/\/www.pyrenees-refuges.com\/fr\/affiche.php?numenr=1137","photo":"2000_1265191650.jpg","region":"","altitude":"2280","cap_ete":"10","cap_hiver":"6","type_hebergement":"cabane ouverte"}},{"type":"Feature","geometry":{"type":"Point","coordinates":[0.77452272,42.8495329]},"properties":{"name":"Cabane de l'Artigue(Melles)","url":"http:\/\/www.pyrenees-refuges.com\/fr\/affiche.php?numenr=1179","photo":"2000_1296853897.jpg","region":"Fos","altitude":"1170","cap_ete":"4","cap_hiver":"4","type_hebergement":"cabane ouverte"}},{"type":"Feature","geometry":{"type":"Point","coordinates":[0.45069,42.87062]},"properties":{"name":"Cabane du Docteur Pic","url":"http:\/\/www.pyrenees-refuges.com\/fr\/affiche.php?numenr=109","photo":"docteur_pic.jpg","region":"Bord\u00e8res-Louron","altitude":"1640","cap_ete":"4","cap_hiver":"4","type_hebergement":"cabane fermee"}},{"type":"Feature","geometry":{"type":"Point","coordinates":[0.98997383,42.8053791]},"properties":{"name":"Cabane de Hounta","url":"http:\/\/www.pyrenees-refuges.com\/fr\/affiche.php?numenr=142","photo":"fonta2.jpg","region":"Bonac-Irazein","altitude":"1470","cap_ete":"5","cap_hiver":"5","type_hebergement":"cabane ouverte mais ocupee par le berger l ete"}},{"type":"Feature","geometry":{"type":"Point","coordinates":[0.442222,42.872222]},"properties":{"name":"Cabane d'Arrieu Tort","url":"http:\/\/www.pyrenees-refuges.com\/fr\/affiche.php?numenr=28","photo":"arrieu_tort.jpg","region":"Bord\u00e8res-Louron","altitude":"1630","cap_ete":"0","cap_hiver":"0","type_hebergement":"cabane fermee"}},{"type":"Feature","geometry":{"type":"Point","coordinates":[-0.0302441,42.7862287]},"properties":{"name":"Cabane de l'Oule","url":"http:\/\/www.pyrenees-refuges.com\/fr\/affiche.php?numenr=238","photo":"refugesansphoto.jpg","region":"Gavarnie-G\u00e8dre","altitude":"1980","cap_ete":"4","cap_hiver":"4","type_hebergement":"cabane ouverte mais ocupee par le berger l ete"}},{"type":"Feature","geometry":{"type":"Point","coordinates":[1.01571751,42.8266312]},"properties":{"name":"Cabane du Trapech du Milieu","url":"http:\/\/www.pyrenees-refuges.com\/fr\/affiche.php?numenr=313","photo":"313_1271150042.jpg","region":"Bordes-Uchentein","altitude":"1530","cap_ete":"4","cap_hiver":"4","type_hebergement":"cabane ouverte"}},{"type":"Feature","geometry":{"type":"Point","coordinates":[1.0105,42.825]},"properties":{"name":"Cabane du Trapech du Haut","url":"http:\/\/www.pyrenees-refuges.com\/fr\/affiche.php?numenr=1143","photo":"1143_1441537558.jpg","region":"Bordes-Uchentein","altitude":"1720","cap_ete":"2","cap_hiver":"2","type_hebergement":"cabane ouverte"}},{"type":"Feature","geometry":{"type":"Point","coordinates":[1.1033,42.8744]},"properties":{"name":"Cabane du Pas de Tartet","url":"http:\/\/www.pyrenees-refuges.com\/fr\/affiche.php?numenr=1148","photo":"2002_1271781727.jpg","region":"Bethmale","altitude":"1612","cap_ete":"2","cap_hiver":"2","type_hebergement":"cabane ouverte"}},{"type":"Feature","geometry":{"type":"Point","coordinates":[-0.0291666,42.83611]},"properties":{"name":"Cabane d'Estarous","url":"http:\/\/www.pyrenees-refuges.com\/fr\/affiche.php?numenr=134","photo":"134_1275900815.jpg","region":"Sazos","altitude":"1660","cap_ete":"","cap_hiver":"","type_hebergement":"cabane ouverte"}},{"type":"Feature","geometry":{"type":"Point","coordinates":[0.83810415,42.8541552]},"properties":{"name":"Cabane d'Uls","url":"http:\/\/www.pyrenees-refuges.com\/fr\/affiche.php?numenr=318","photo":"318_1284968424.jpg","region":"Melles","altitude":"1868","cap_ete":"10","cap_hiver":"10","type_hebergement":"cabane ouverte"}},{"type":"Feature","geometry":{"type":"Point","coordinates":[-0.83461,42.94511]},"properties":{"name":"Refuge de Belagua","url":"http:\/\/www.pyrenees-refuges.com\/fr\/affiche.php?numenr=55","photo":"55_1292600114.jpg","region":"Isaba\/Izaba","altitude":"1430","cap_ete":"20","cap_hiver":"20","type_hebergement":"cabane ouverte"}},{"type":"Feature","geometry":{"type":"Point","coordinates":[0.66581367,42.8858278]},"properties":{"name":"Cabane de Contraire","url":"http:\/\/www.pyrenees-refuges.com\/fr\/affiche.php?numenr=501","photo":"501_1474285734.jpg","region":"Marignac","altitude":"950","cap_ete":"8","cap_hiver":"8","type_hebergement":"cabane ouverte"}},{"type":"Feature","geometry":{"type":"Point","coordinates":[1.790556,42.309444]},"properties":{"name":"Refige Els Cortals de l'Ingla","url":"http:\/\/www.pyrenees-refuges.com\/fr\/affiche.php?numenr=729","photo":"refugesansphoto.jpg","region":"Bellver de Cerdanya","altitude":"1610","cap_ete":"22","cap_hiver":"22","type_hebergement":"cabane ouverte"}},{"type":"Feature","geometry":{"type":"Point","coordinates":[2.64493499,42.3120156]},"properties":{"name":"Refuge Bassegoda","url":"http:\/\/www.pyrenees-refuges.com\/fr\/affiche.php?numenr=1157","photo":"2000_1283940744.jpg","region":"Albany","altitude":"800","cap_ete":"40","cap_hiver":"40","type_hebergement":"cabane ouverte"}},{"type":"Feature","geometry":{"type":"Point","coordinates":[0.75099706,42.9223819]},"properties":{"name":"Refuge de l Escalette","url":"http:\/\/www.pyrenees-refuges.com\/fr\/affiche.php?numenr=514","photo":"514_1230658602.jpg","region":"Boutx","altitude":"1598","cap_ete":"20","cap_hiver":"20","type_hebergement":"cabane ouverte"}},{"type":"Feature","geometry":{"type":"Point","coordinates":[0.96835871,42.8269328]},"properties":{"name":"Cabane Arech","url":"http:\/\/www.pyrenees-refuges.com\/fr\/affiche.php?numenr=533","photo":"533_1541750048.jpg","region":"Bonac-Irazein","altitude":"1635","cap_ete":"6","cap_hiver":"6","type_hebergement":"cabane ouverte"}},{"type":"Feature","geometry":{"type":"Point","coordinates":[2.01422631,42.4167718]},"properties":{"name":"Nahuja","url":"http:\/\/www.pyrenees-refuges.com\/fr\/affiche.php?numenr=1069","photo":"1069_1286549089.jpg","region":"Nahuja","altitude":"1720","cap_ete":"3","cap_hiver":"3","type_hebergement":"cabane ouverte"}},{"type":"Feature","geometry":{"type":"Point","coordinates":[0.6526419,42.7341566]},"properties":{"name":"Cabane de Campsaure","url":"http:\/\/www.pyrenees-refuges.com\/fr\/affiche.php?numenr=927","photo":"927_1219413419.jpg","region":"Bagn\u00e8res-de-Luchon","altitude":"1650","cap_ete":"0","cap_hiver":"2","type_hebergement":"cabane ouverte"}},{"type":"Feature","geometry":{"type":"Point","coordinates":[0.759,42.8048]},"properties":{"name":"Cabane de Laujo","url":"http:\/\/www.pyrenees-refuges.com\/fr\/affiche.php?numenr=1015","photo":"1015_1441182849.jpg","region":"Canejan","altitude":"1687","cap_ete":"3","cap_hiver":"3","type_hebergement":"cabane ouverte"}},{"type":"Feature","geometry":{"type":"Point","coordinates":[1.87975592,42.657079]},"properties":{"name":"Cabane de la Coume","url":"http:\/\/www.pyrenees-refuges.com\/fr\/affiche.php?numenr=102","photo":"102_1200488842.jpg","region":"Orgeix","altitude":"1637","cap_ete":"0","cap_hiver":"0","type_hebergement":"orri toue abri en pierre"}},{"type":"Feature","geometry":{"type":"Point","coordinates":[-0.4984,42.9789]},"properties":{"name":"Cabane Cure-Det-Cam","url":"http:\/\/www.pyrenees-refuges.com\/fr\/affiche.php?numenr=420","photo":"420_1294657328.jpg","region":"Laruns","altitude":"1600","cap_ete":"6","cap_hiver":"6","type_hebergement":"cabane ouverte"}},{"type":"Feature","geometry":{"type":"Point","coordinates":[1.6923,42.71329999]},