{
"type": "FeatureCollection",
"name": "peaks3000",
"crs": { "type": "name", "properties": { "name": "urn:ogc:def:crs:OGC:1.3:CRS84" } },
"features": [
{ "type": "Feature", "properties": { "id": "node\/4252339778", "name": "Pico de Aneto", "prominence": "2812", "ele": 3404 }, "geometry": { "type": "Point", "coordinates": [ 0.656646, 42.631073 ] } },
{ "type": "Feature", "properties": { "id": "node\/26864263", "name": "Pico de Posets", "prominence": "1125", "ele": 3369 }, "geometry": { "type": "Point", "coordinates": [ 0.435232, 42.654629 ] } },
{ "type": "Feature", "properties": { "id": "node\/948790896", "name": "Monte Perdido", "prominence": null, "ele": 3355 }, "geometry": { "type": "Point", "coordinates": [ 0.034357, 42.675548 ] } },
{ "type": "Feature", "properties": { "id": "node\/255545541", "name": "Pico Maldito", "prominence": null, "ele": 3354 }, "geometry": { "type": "Point", "coordinates": [ 0.64141, 42.639583 ] } },
{ "type": "Feature", "properties": { "id": "node\/1250020206", "name": "Punta de Astorg", "prominence": "154", "ele": 3354 }, "geometry": { "type": "Point", "coordinates": [ 0.642451, 42.639411 ] } },
{ "type": "Feature", "properties": { "id": "node\/5003473130", "name": "Aguja Daviu", "prominence": null, "ele": 3350 }, "geometry": { "type": "Point", "coordinates": [ 0.655514, 42.630429 ] } },
{ "type": "Feature", "properties": { "id": "node\/7545978784", "name": "Monte Perdido", "prominence": null, "ele": 3348 }, "geometry": { "type": "Point", "coordinates": [ 0.034358, 42.675515 ] } },
{ "type": "Feature", "properties": { "id": "node\/1250020531", "name": "Pico del Medio", "prominence": null, "ele": 3346 }, "geometry": { "type": "Point", "coordinates": [ 0.64519, 42.638607 ] } },
{ "type": "Feature", "properties": { "id": "node\/5003473125", "name": "Espalda de Aneto", "prominence": null, "ele": 3345 }, "geometry": { "type": "Point", "coordinates": [ 0.659742, 42.629335 ] } },
{ "type": "Feature", "properties": { "id": "node\/5003473129", "name": "Aguja Escudier", "prominence": null, "ele": 3340 }, "geometry": { "type": "Point", "coordinates": [ 0.654637, 42.630371 ] } },
{ "type": "Feature", "properties": { "id": "node\/1250034030", "name": "Punta Llardaneta o Pico Espadas", "prominence": "76", "ele": 3328 }, "geometry": { "type": "Point", "coordinates": [ 0.426565, 42.649836 ] } },
{ "type": "Feature", "properties": { "id": "node\/1092109785", "name": "Cilindro de Marboré", "prominence": "251", "ele": 3325 }, "geometry": { "type": "Point", "coordinates": [ 0.023866, 42.684795 ] } },
{ "type": "Feature", "properties": { "id": "node\/623866300", "name": "Pico de la Maladeta", "prominence": "107", "ele": 3312 }, "geometry": { "type": "Point", "coordinates": [ 0.640276, 42.646432 ] } },
{ "type": "Feature", "properties": { "id": "node\/5003215080", "name": "Tuca de Llardaneta", "prominence": null, "ele": 3311 }, "geometry": { "type": "Point", "coordinates": [ 0.430568, 42.652533 ] } },
{ "type": "Feature", "properties": { "id": "node\/2933054393", "name": "Punta Oliveras-Arenas", "prominence": null, "ele": 3302 }, "geometry": { "type": "Point", "coordinates": [ 0.654513, 42.633763 ] } },
{ "type": "Feature", "properties": { "id": "node\/626639517", "name": "Vignemale", "prominence": "1027", "ele": 3298 }, "geometry": { "type": "Point", "coordinates": [ -0.147344, 42.773943 ] } },
{ "type": "Feature", "properties": { "id": "node\/623866271", "name": "Pico de Coronas", "prominence": null, "ele": 3297 }, "geometry": { "type": "Point", "coordinates": [ 0.649285, 42.637166 ] } },
{ "type": "Feature", "properties": { "id": "node\/255545807", "name": "Pico de Tempestades", "prominence": "72", "ele": 3289 }, "geometry": { "type": "Point", "coordinates": [ 0.662767, 42.626113 ] } },
{ "type": "Feature", "properties": { "id": "node\/4947558532", "name": "Pic Clot de la Hount", "prominence": null, "ele": 3289 }, "geometry": { "type": "Point", "coordinates": [ -0.149725, 42.773189 ] } },
{ "type": "Feature", "properties": { "id": "node\/5003473132", "name": "Tuca Collado de Coronas", "prominence": null, "ele": 3286 }, "geometry": { "type": "Point", "coordinates": [ 0.650994, 42.635908 ] } },
{ "type": "Feature", "properties": { "id": "node\/1250037829", "name": "Pico Abadías", "prominence": null, "ele": 3272 }, "geometry": { "type": "Point", "coordinates": [ 0.638519, 42.643269 ] } },
{ "type": "Feature", "properties": { "id": "node\/3208885324", "name": "Pico Cordier", "prominence": "35", "ele": 3266 }, "geometry": { "type": "Point", "coordinates": [ 0.633443, 42.649208 ] } },
{ "type": "Feature", "properties": { "id": "node\/5003215081", "name": "Tuqueta Roya", "prominence": null, "ele": 3266 }, "geometry": { "type": "Point", "coordinates": [ 0.432748, 42.6531 ] } },
{ "type": "Feature", "properties": { "id": "node\/1250031353", "name": "Pico de Añisclo o Soum de Ramond", "prominence": "94", "ele": 3257 }, "geometry": { "type": "Point", "coordinates": [ 0.043136, 42.669588 ] } },
{ "type": "Feature", "properties": { "id": "node\/255545818", "name": "Margalida", "prominence": "30", "ele": 3251 }, "geometry": { "type": "Point", "coordinates": [ 0.665924, 42.624453 ] } },
{ "type": "Feature", "properties": { "id": "node\/2192182895", "name": "Pico Marboré", "prominence": null, "ele": 3251 }, "geometry": { "type": "Point", "coordinates": [ 0.011823, 42.692868 ] } },
{ "type": "Feature", "properties": { "id": "node\/494177500", "name": "Pic de Cerbillona", "prominence": null, "ele": 3247 }, "geometry": { "type": "Point", "coordinates": [ -0.149805, 42.7692 ] } },
{ "type": "Feature", "properties": { "id": "node\/4947558533", "name": "Pic Central", "prominence": null, "ele": 3235 }, "geometry": { "type": "Point", "coordinates": [ -0.146563, 42.768363 ] } },
{ "type": "Feature", "properties": { "id": "node\/7546011587", "name": "Mallo Tormosa", "prominence": null, "ele": 3235 }, "geometry": { "type": "Point", "coordinates": [ 0.041902, 42.671877 ] } },
{ "type": "Feature", "properties": { "id": "node\/26864268", "name": "Perdiguère \/ Perdiguero", "prominence": "649", "ele": 3222 }, "geometry": { "type": "Point", "coordinates": [ 0.518865, 42.692001 ] } },
{ "type": "Feature", "properties": { "id": "node\/566485955", "name": "Pic de Montferrat", "prominence": null, "ele": 3219 }, "geometry": { "type": "Point", "coordinates": [ -0.138288, 42.766628 ] } },
{ "type": "Feature", "properties": { "id": "node\/1250021817", "name": "Pico Sayó", "prominence": "33", "ele": 3215 }, "geometry": { "type": "Point", "coordinates": [ 0.629626, 42.651746 ] } },
{ "type": "Feature", "properties": { "id": "node\/626949753", "name": "Pico de Russell", "prominence": "49", "ele": 3205 }, "geometry": { "type": "Point", "coordinates": [ 0.670552, 42.61852 ] } },
{ "type": "Feature", "properties": { "id": "node\/1140536164", "name": "Pointe Chausenque", "prominence": null, "ele": 3204 }, "geometry": { "type": "Point", "coordinates": [ -0.142282, 42.773463 ] } },
{ "type": "Feature", "properties": { "id": "node\/1140536098", "name": "Piton Carré", "prominence": null, "ele": 3197 }, "geometry": { "type": "Point", "coordinates": [ -0.144987, 42.773429 ] } },
{ "type": "Feature", "properties": { "id": "node\/4321262141", "name": "Piton SW del Cilindro", "prominence": null, "ele": 3194 }, "geometry": { "type": "Point", "coordinates": [ 0.020907, 42.681039 ] } },
{ "type": "Feature", "properties": { "id": "node\/26864248", "name": "Pic Long", "prominence": "726", "ele": 3192 }, "geometry": { "type": "Point", "coordinates": [ 0.100127, 42.800827 ] } },
{ "type": "Feature", "properties": { "id": "node\/5003473141", "name": "Pico Mir", "prominence": null, "ele": 3187 }, "geometry": { "type": "Point", "coordinates": [ 0.628693, 42.653115 ] } },
{ "type": "Feature", "properties": { "id": "node\/5003160016", "name": "Dedo del Monte Perdido", "prominence": null, "ele": 3185 }, "geometry": { "type": "Point", "coordinates": [ 0.031582, 42.679091 ] } },
{ "type": "Feature", "properties": { "id": "node\/26863008", "name": "Schrader \/ Bachimala", "prominence": "558", "ele": 3177 }, "geometry": { "type": "Point", "coordinates": [ 0.394425, 42.698598 ] } },
{ "type": "Feature", "properties": { "id": "node\/2294126949", "name": "Hito Occidental del Perdiguero", "prominence": null, "ele": 3176 }, "geometry": { "type": "Point", "coordinates": [ 0.515292, 42.691427 ] } },
{ "type": "Feature", "properties": { "id": "node\/5003160015", "name": "Nudillo del Monte Perdido", "prominence": null, "ele": 3174 }, "geometry": { "type": "Point", "coordinates": [ 0.030743, 42.679932 ] } },
{ "type": "Feature", "properties": { "id": "node\/2287097413", "name": "Pic de Campbieil", "prominence": "271", "ele": 3173 }, "geometry": { "type": "Point", "coordinates": [ 0.120142, 42.792338 ] } },
{ "type": "Feature", "properties": { "id": "node\/2634949996", "name": "Hito Oriental del Perdiguero", "prominence": null, "ele": 3170 }, "geometry": { "type": "Point", "coordinates": [ 0.525986, 42.690081 ] } },
{ "type": "Feature", "properties": { "id": "node\/1250020179", "name": "Pico de los Gemelos", "prominence": null, "ele": 3167 }, "geometry": { "type": "Point", "coordinates": [ 0.435147, 42.661491 ] } },
{ "type": "Feature", "properties": { "id": "node\/1250023594", "name": "Punta Delmás", "prominence": null, "ele": 3163 }, "geometry": { "type": "Point", "coordinates": [ 0.628456, 42.653901 ] } },
{ "type": "Feature", "properties": { "id": "node\/5003160018", "name": "Picos de la Cascada Oriental", "prominence": null, "ele": 3161 }, "geometry": { "type": "Point", "coordinates": [ 0.007822, 42.689958 ] } },
{ "type": "Feature", "properties": { "id": "node\/2287097434", "name": "Pic Badet", "prominence": null, "ele": 3160 }, "geometry": { "type": "Point", "coordinates": [ 0.103649, 42.797411 ] } },
{ "type": "Feature", "properties": { "id": "node\/5003088277", "name": "Pic de Lentilla", "prominence": null, "ele": 3157 }, "geometry": { "type": "Point", "coordinates": [ 0.117384, 42.788878 ] } },
{ "type": "Feature", "properties": { "id": "node\/5003057686", "name": "Espalda Chausenque", "prominence": null, "ele": 3154 }, "geometry": { "type": "Point", "coordinates": [ -0.140018, 42.773292 ] } },
{ "type": "Feature", "properties": { "id": "node\/1250032653", "name": "Pico de le Bondidier", "prominence": null, "ele": 3153 }, "geometry": { "type": "Point", "coordinates": [ 0.627416, 42.648086 ] } },
{ "type": "Feature", "properties": { "id": "node\/4947558534", "name": "Grand Pic de Tapou", "prominence": null, "ele": 3151 }, "geometry": { "type": "Point", "coordinates": [ -0.135837, 42.762784 ] } },
{ "type": "Feature", "properties": { "id": "node\/494395635", "name": "Pic du Balaïtous", "prominence": "849", "ele": 3146 }, "geometry": { "type": "Point", "coordinates": [ -0.290257, 42.838939 ] } },
{ "type": "Feature", "properties": { "id": "node\/2192182868", "name": "Taillon", "prominence": "342", "ele": 3144 }, "geometry": { "type": "Point", "coordinates": [ -0.051287, 42.693642 ] } },
{ "type": "Feature", "properties": { "id": "node\/26864258", "name": "Pica d'Estats", "prominence": "1290", "ele": 3143 }, "geometry": { "type": "Point", "coordinates": [ 1.397899, 42.666952 ] } },
{ "type": "Feature", "properties": { "id": "node\/5003088278", "name": "Aguja Badet", "prominence": null, "ele": 3135 }, "geometry": { "type": "Point", "coordinates": [ 0.102117, 42.798865 ] } },
{ "type": "Feature", "properties": { "id": "node\/1250028985", "name": "Punta del Sabre", "prominence": null, "ele": 3134 }, "geometry": { "type": "Point", "coordinates": [ 0.396437, 42.694437 ] } },
{ "type": "Feature", "properties": { "id": "node\/1092110351", "name": "Pic de la Munia", "prominence": "514", "ele": 3133 }, "geometry": { "type": "Point", "coordinates": [ 0.130951, 42.7147 ] } },
{ "type": "Feature", "properties": { "id": "node\/1060153613", "name": "Pointe de Literole", "prominence": null, "ele": 3132 }, "geometry": { "type": "Point", "coordinates": [ 0.522862, 42.698842 ] } },
{ "type": "Feature", "properties": { "id": "node\/5003057682", "name": "Punta Superior del Tapou", "prominence": null, "ele": 3132 }, "geometry": { "type": "Point", "coordinates": [ -0.136525, 42.764092 ] } },
{ "type": "Feature", "properties": { "id": "node\/4947558535", "name": "Pic du Milieu", "prominence": null, "ele": 3130 }, "geometry": { "type": "Point", "coordinates": [ -0.136407, 42.761578 ] } },
{ "type": "Feature", "properties": { "id": "node\/445583491", "name": "Pic Verdaguer", "prominence": null, "ele": 3129 }, "geometry": { "type": "Point", "coordinates": [ 1.396855, 42.668049 ] } },
{ "type": "Feature", "properties": { "id": "node\/988137856", "name": "Pic des Gourgs Blancs", "prominence": "221", "ele": 3129 }, "geometry": { "type": "Point", "coordinates": [ 0.477723, 42.700022 ] } },
{ "type": "Feature", "properties": { "id": "node\/1250021543", "name": "Pico de los Veteranos", "prominence": null, "ele": 3129 }, "geometry": { "type": "Point", "coordinates": [ 0.437482, 42.66516 ] } },
{ "type": "Feature", "properties": { "id": "node\/5003057681", "name": "Punta Inferior del Tapou", "prominence": null, "ele": 3124 }, "geometry": { "type": "Point", "coordinates": [ -0.135858, 42.763519 ] } },
{ "type": "Feature", "properties": { "id": "node\/1060153574", "name": "Pic Royo", "prominence": null, "ele": 3122 }, "geometry": { "type": "Point", "coordinates": [ 0.520799, 42.69745 ] } },
{ "type": "Feature", "properties": { "id": "node\/1250023802", "name": "Tucón Royo o Pavots", "prominence": null, "ele": 3122 }, "geometry": { "type": "Point", "coordinates": [ 0.423891, 42.640826 ] } },
{ "type": "Feature", "properties": { "id": "node\/3208807850", "name": "Diente de Alba", "prominence": "44", "ele": 3121 }, "geometry": { "type": "Point", "coordinates": [ 0.624432, 42.653981 ] } },
{ "type": "Feature", "properties": { "id": "node\/5003057684", "name": "Aiguille supérieure du Clot de la Hount", "prominence": null, "ele": 3119 }, "geometry": { "type": "Point", "coordinates": [ -0.153276, 42.773881 ] } },
{ "type": "Feature", "properties": { "id": "node\/1868861762", "name": "Punta de Gabarró", "prominence": null, "ele": 3115 }, "geometry": { "type": "Point", "coordinates": [ 1.399878, 42.665468 ] } },
{ "type": "Feature", "properties": { "id": "node\/5003256554", "name": "Torre Armengaud", "prominence": null, "ele": 3114 }, "geometry": { "type": "Point", "coordinates": [ 0.476412, 42.700025 ] } },
{ "type": "Feature", "properties": { "id": "node\/623866307", "name": "Pico del Alba", "prominence": "85", "ele": 3112 }, "geometry": { "type": "Point", "coordinates": [ 0.620669, 42.65596 ] } },
{ "type": "Feature", "properties": { "id": "node\/5003160019", "name": "Pic Brulle", "prominence": null, "ele": 3111 }, "geometry": { "type": "Point", "coordinates": [ 0.005118, 42.688839 ] } },
{ "type": "Feature", "properties": { "id": "node\/988137873", "name": "Pic du Maupas", "prominence": "97", "ele": 3109 }, "geometry": { "type": "Point", "coordinates": [ 0.54558, 42.701417 ] } },
{ "type": "Feature", "properties": { "id": "node\/1089570452", "name": "Pico Sellam de la Baca Oriental", "prominence": "197", "ele": 3108 }, "geometry": { "type": "Point", "coordinates": [ 0.496261, 42.692349 ] } },
{ "type": "Feature", "properties": { "id": "node\/1089570448", "name": "Pic des Crabioules", "prominence": "133", "ele": 3107 }, "geometry": { "type": "Point", "coordinates": [ 0.52985, 42.702699 ] } },
{ "type": "Feature", "properties": { "id": "node\/5003172156", "name": "Punta Ledormeur", "prominence": null, "ele": 3107 }, "geometry": { "type": "Point", "coordinates": [ 0.395175, 42.699564 ] } },
{ "type": "Feature", "properties": { "id": "node\/5003256549", "name": "Pico Sellam de la Baca Occidental", "prominence": null, "ele": 3104 }, "geometry": { "type": "Point", "coordinates": [ 0.49284, 42.693224 ] } },
{ "type": "Feature", "properties": { "id": "node\/5003256555", "name": "Punta Lourde-Rocheblave", "prominence": null, "ele": 3104 }, "geometry": { "type": "Point", "coordinates": [ 0.474086, 42.700092 ] } },
{ "type": "Feature", "properties": { "id": "node\/1089570487", "name": "Pic Lézat", "prominence": "149", "ele": 3101 }, "geometry": { "type": "Point", "coordinates": [ 0.516649, 42.707372 ] } },
{ "type": "Feature", "properties": { "id": "node\/1250025769", "name": "Picos de la Cascada Occidental", "prominence": null, "ele": 3098 }, "geometry": { "type": "Point", "coordinates": [ 0.002415, 42.686699 ] } },
{ "type": "Feature", "properties": { "id": "node\/1250019942", "name": "Tuca de Lliterola", "prominence": null, "ele": 3097 }, "geometry": { "type": "Point", "coordinates": [ 0.521192, 42.695402 ] } },
{ "type": "Feature", "properties": { "id": "node\/5003093298", "name": "Pequeña Munia", "prominence": null, "ele": 3096 }, "geometry": { "type": "Point", "coordinates": [ 0.133552, 42.716198 ] } },
{ "type": "Feature", "properties": { "id": "node\/5003160017", "name": "Tuqueta de Marboré", "prominence": null, "ele": 3093 }, "geometry": { "type": "Point", "coordinates": [ 0.018894, 42.685452 ] } },
{ "type": "Feature", "properties": { "id": "node\/1825431806", "name": "Pic de Néouvielle", "prominence": "487", "ele": 3091 }, "geometry": { "type": "Point", "coordinates": [ 0.11512, 42.835366 ] } },
{ "type": "Feature", "properties": { "id": "node\/1250019173", "name": "Pic de Serre de Mourène", "prominence": null, "ele": 3090 }, "geometry": { "type": "Point", "coordinates": [ 0.135349, 42.720757 ] } },
{ "type": "Feature", "properties": { "id": "node\/6880683508", "name": "Brecha de los Gemelos", "prominence": null, "ele": 3087 }, "geometry": { "type": "Point", "coordinates": [ 0.437014, 42.663528 ] } },
{ "type": "Feature", "properties": { "id": "node\/494174406", "name": "Pic de Troumouse", "prominence": null, "ele": 3085 }, "geometry": { "type": "Point", "coordinates": [ 0.136743, 42.722445 ] } },
{ "type": "Feature", "properties": { "id": "node\/1250038304", "name": "Diente de Llardana", "prominence": null, "ele": 3085 }, "geometry": { "type": "Point", "coordinates": [ 0.435051, 42.64621 ] } },
{ "type": "Feature", "properties": { "id": "node\/652132494", "name": "Infierno Central", "prominence": "532", "ele": 3082 }, "geometry": { "type": "Point", "coordinates": [ -0.260407, 42.781413 ] } },
{ "type": "Feature", "properties": { "id": "node\/5003215082", "name": "Pico de la Paúl", "prominence": null, "ele": 3079 }, "geometry": { "type": "Point", "coordinates": [ 0.446277, 42.660569 ] } },
{ "type": "Feature", "properties": { "id": "node\/2917938909", "name": "Infierno Oriental", "prominence": null, "ele": 3078 }, "geometry": { "type": "Point", "coordinates": [ -0.2591, 42.781417 ] } },
{ "type": "Feature", "properties": { "id": "node\/5003160012", "name": "Espalda de Esparets", "prominence": null, "ele": 3078 }, "geometry": { "type": "Point", "coordinates": [ 0.043026, 42.677247 ] } },
{ "type": "Feature", "properties": { "id": "node\/445583481", "name": "Pic du Montcalm", "prominence": null, "ele": 3077 }, "geometry": { "type": "Point", "coordinates": [ 1.406335, 42.671904 ] } },
{ "type": "Feature", "properties": { "id": "node\/5003215079", "name": "Tuca Forau de la Neu", "prominence": null, "ele": 3076 }, "geometry": { "type": "Point", "coordinates": [ 0.428019, 42.644025 ] } },
{ "type": "Feature", "properties": { "id": "node\/2287097444", "name": "Pic Maou", "prominence": null, "ele": 3074 }, "geometry": { "type": "Point", "coordinates": [ 0.105241, 42.793494 ] } },
{ "type": "Feature", "properties": { "id": "node\/652132493", "name": "Infierno Occidental NW", "prominence": null, "ele": 3073 }, "geometry": { "type": "Point", "coordinates": [ -0.26324, 42.783113 ] } },
{ "type": "Feature", "properties": { "id": "node\/1250015177", "name": "Espalda de Marboré", "prominence": null, "ele": 3073 }, "geometry": { "type": "Point", "coordinates": [ 0.000286, 42.685341 ] } },
{ "type": "Feature", "properties": { "id": "node\/1250039537", "name": "Pico Inferior de la Paúl", "prominence": null, "ele": 3073 }, "geometry": { "type": "Point", "coordinates": [ 0.44342, 42.658609 ] } },
{ "type": "Feature", "properties": { "id": "node\/5003473135", "name": "Aguja Haurillón", "prominence": null, "ele": 3073 }, "geometry": { "type": "Point", "coordinates": [ 0.637025, 42.63519 ] } },
{ "type": "Feature", "properties": { "id": "node\/45194103", "name": "Pic de Sotllo", "prominence": "198", "ele": 3072 }, "geometry": { "type": "Point", "coordinates": [ 1.387456, 42.668712 ] } },
{ "type": "Feature", "properties": { "id": "node\/652132539", "name": "Pico de la Frondella", "prominence": null, "ele": 3071 }, "geometry": { "type": "Point", "coordinates": [ -0.290473, 42.832839 ] } },
{ "type": "Feature", "properties": { "id": "node\/734648025", "name": "Grand Astazou", "prominence": null, "ele": 3071 }, "geometry": { "type": "Point", "coordinates": [ 0.023682, 42.702484 ] } },
{ "type": "Feature", "properties": { "id": "node\/5003256543", "name": "Aguja Superior de Lézat", "prominence": null, "ele": 3069 }, "geometry": { "type": "Point", "coordinates": [ 0.517774, 42.707795 ] } },
{ "type": "Feature", "properties": { "id": "node\/1250033046", "name": "Pico de Bardamina", "prominence": null, "ele": 3068 }, "geometry": { "type": "Point", "coordinates": [ 0.450965, 42.662431 ] } },
{ "type": "Feature", "properties": { "id": "node\/909351801", "name": "Pic des Spijeoles", "prominence": "188", "ele": 3065 }, "geometry": { "type": "Point", "coordinates": [ 0.48482, 42.710121 ] } },
{ "type": "Feature", "properties": { "id": "node\/5003256553", "name": "Tuca de O", "prominence": null, "ele": 3065 }, "geometry": { "type": "Point", "coordinates": [ 0.481174, 42.699634 ] } },
{ "type": "Feature", "properties": { "id": "node\/5003473128", "name": "Aguja Franqueville", "prominence": null, "ele": 3065 }, "geometry": { "type": "Point", "coordinates": [ 0.646822, 42.625114 ] } },
{ "type": "Feature", "properties": { "id": "node\/590706409", "name": "Garmo Negro", "prominence": "246", "ele": 3064 }, "geometry": { "type": "Point", "coordinates": [ -0.264151, 42.771713 ] } },
{ "type": "Feature", "properties": { "id": "node\/5003033726", "name": "Frondella N", "prominence": null, "ele": 3062 }, "geometry": { "type": "Point", "coordinates": [ -0.290147, 42.833473 ] } },
{ "type": "Feature", "properties": { "id": "node\/1089570462", "name": "Grand Quayrat", "prominence": "153", "ele": 3060 }, "geometry": { "type": "Point", "coordinates": [ 0.514996, 42.713335 ] } },
{ "type": "Feature", "properties": { "id": "node\/1250040083", "name": "Tuca de Vallibierna o de Culebres", "prominence": "329", "ele": 3059 }, "geometry": { "type": "Point", "coordinates": [ 0.653089, 42.594042 ] } },
{ "type": "Feature", "properties": { "id": "node\/4999107333", "name": "Pic Maubic", "prominence": null, "ele": 3058 }, "geometry": { "type": "Point", "coordinates": [ 0.102923, 42.802744 ] } },
{ "type": "Feature", "properties": { "id": "node\/5003256542", "name": "Aguja Central NW de Lézat", "prominence": null, "ele": 3058 }, "geometry": { "type": "Point", "coordinates": [ 0.518321, 42.707385 ] } },
{ "type": "Feature", "properties": { "id": "node\/5003263133", "name": "Sotllo N", "prominence": null, "ele": 3058 }, "geometry": { "type": "Point", "coordinates": [ 1.387526, 42.669787 ] } },
{ "type": "Feature", "properties": { "id": "node\/1250025913", "name": "Pico Eriste Gran", "prominence": "222", "ele": 3056 }, "geometry": { "type": "Point", "coordinates": [ 0.409234, 42.625067 ] } },
{ "type": "Feature", "properties": { "id": "node\/652132478", "name": "Frondella", "prominence": null, "ele": 3055 }, "geometry": { "type": "Point", "coordinates": [ -0.292876, 42.832153 ] } },
{ "type": "Feature", "properties": { "id": "node\/5003473127", "name": "Aguja Tchihatcheff", "prominence": null, "ele": 3052 }, "geometry": { "type": "Point", "coordinates": [ 0.644857, 42.624652 ] } },
{ "type": "Feature", "properties": { "id": "node\/6887996037", "name": "Punta del Ibón", "prominence": null, "ele": 3052 }, "geometry": { "type": "Point", "coordinates": [ 0.393544, 42.706398 ] } },
{ "type": "Feature", "properties": { "id": "node\/1250030355", "name": "Pico Royo", "prominence": null, "ele": 3051 }, "geometry": { "type": "Point", "coordinates": [ -0.054475, 42.690842 ] } },
{ "type": "Feature", "properties": { "id": "node\/1250034375", "name": "Pequeño Bachimala", "prominence": null, "ele": 3051 }, "geometry": { "type": "Point", "coordinates": [ 0.393612, 42.70978 ] } },
{ "type": "Feature", "properties": { "id": "node\/5003057685", "name": "Aguja SW de Cerbillona", "prominence": null, "ele": 3051 }, "geometry": { "type": "Point", "coordinates": [ -0.152495, 42.767602 ] } },
{ "type": "Feature", "properties": { "id": "node\/5003470416", "name": "Punta Russell Oriental", "prominence": null, "ele": 3051 }, "geometry": { "type": "Point", "coordinates": [ 0.677027, 42.61658 ] } },
{ "type": "Feature", "properties": { "id": "node\/5003256546", "name": "Pico Portillón de Oô", "prominence": null, "ele": 3050 }, "geometry": { "type": "Point", "coordinates": [ 0.507367, 42.692704 ] } },
{ "type": "Feature", "properties": { "id": "node\/3253918830", "name": "Torre Costerillou", "prominence": null, "ele": 3049 }, "geometry": { "type": "Point", "coordinates": [ -0.285957, 42.837679 ] } },
{ "type": "Feature", "properties": { "id": "node\/626949784", "name": "Pico Aragüells", "prominence": "134", "ele": 3048 }, "geometry": { "type": "Point", "coordinates": [ 0.627827, 42.631376 ] } },
{ "type": "Feature", "properties": { "id": "node\/652132454", "name": "Argualas", "prominence": null, "ele": 3046 }, "geometry": { "type": "Point", "coordinates": [ -0.267434, 42.766379 ] } },
{ "type": "Feature", "properties": { "id": "node\/2294147390", "name": "Pico Rabadá", "prominence": null, "ele": 3045 }, "geometry": { "type": "Point", "coordinates": [ 0.536899, 42.700051 ] } },
{ "type": "Feature", "properties": { "id": "node\/5003160013", "name": "Baudrimont NW", "prominence": null, "ele": 3045 }, "geometry": { "type": "Point", "coordinates": [ 0.047354, 42.673277 ] } },
{ "type": "Feature", "properties": { "id": "node\/5003256548", "name": "Pico Audoubert", "prominence": null, "ele": 3045 }, "geometry": { "type": "Point", "coordinates": [ 0.4893, 42.6962 ] } },
{ "type": "Feature", "properties": { "id": "node\/5003057683", "name": "Aguja Inferior Clot de la Hount", "prominence": null, "ele": 3043 }, "geometry": { "type": "Point", "coordinates": [ -0.154691, 42.774478 ] } },
{ "type": "Feature", "properties": { "id": "node\/5003256556", "name": "Pico Camboué", "prominence": null, "ele": 3043 }, "geometry": { "type": "Point", "coordinates": [ 0.471543, 42.702347 ] } },
{ "type": "Feature", "properties": { "id": "node\/2294147403", "name": "Tusse de Remuñe", "prominence": null, "ele": 3041 }, "geometry": { "type": "Point", "coordinates": [ 0.5356, 42.699758 ] } },
{ "type": "Feature", "properties": { "id": "node\/3090463423", "name": "Cap de la Coma de Riufred", "prominence": null, "ele": 3041 }, "geometry": { "type": "Point", "coordinates": [ 1.401523, 42.668745 ] } },
{ "type": "Feature", "properties": { "id": "node\/5003473134", "name": "Aguja Cregüeña", "prominence": null, "ele": 3041 }, "geometry": { "type": "Point", "coordinates": [ 0.635737, 42.634669 ] } },
{ "type": "Feature", "properties": { "id": "node\/6886018973", "name": "Pico de Bagüeñola", "prominence": null, "ele": 3041 }, "geometry": { "type": "Point", "coordinates": [ 0.409031, 42.623141 ] } },
{ "type": "Feature", "properties": { "id": "node\/2287097482", "name": "Pic des Trois Conseillers", "prominence": null, "ele": 3039 }, "geometry": { "type": "Point", "coordinates": [ 0.11293, 42.831159 ] } },
{ "type": "Feature", "properties": { "id": "node\/5003256541", "name": "Aguja Central SE de Lézat", "prominence": null, "ele": 3037 }, "geometry": { "type": "Point", "coordinates": [ 0.518686, 42.706991 ] } },
{ "type": "Feature", "properties": { "id": "node\/1250020602", "name": "Pico de Algas", "prominence": null, "ele": 3036 }, "geometry": { "type": "Point", "coordinates": [ -0.270646, 42.768316 ] } },
{ "type": "Feature", "properties": { "id": "node\/5003473126", "name": "Aguja Argarot", "prominence": null, "ele": 3036 }, "geometry": { "type": "Point", "coordinates": [ 0.644806, 42.62429 ] } },
{ "type": "Feature", "properties": { "id": "node\/1250040387", "name": "Gabieto Sur", "prominence": "97", "ele": 3035 }, "geometry": { "type": "Point", "coordinates": [ -0.065225, 42.692871 ] } },
{ "type": "Feature", "properties": { "id": "node\/2287097490", "name": "Turon de Néouvielle", "prominence": null, "ele": 3035 }, "geometry": { "type": "Point", "coordinates": [ 0.10775, 42.827771 ] } },
{ "type": "Feature", "properties": { "id": "node\/5003088279", "name": "Premier Conseiller", "prominence": null, "ele": 3035 }, "geometry": { "type": "Point", "coordinates": [ 0.109906, 42.829913 ] } },
{ "type": "Feature", "properties": { "id": "node\/1060153609", "name": "Pic Gourdon", "prominence": "114", "ele": 3034 }, "geometry": { "type": "Point", "coordinates": [ 0.482722, 42.704734 ] } },
{ "type": "Feature", "properties": { "id": "node\/1400940495", "name": "Punta Culfreda", "prominence": "583", "ele": 3034 }, "geometry": { "type": "Point", "coordinates": [ 0.336307, 42.708704 ] } },
{ "type": "Feature", "properties": { "id": "node\/5003172157", "name": "Punta Batouta", "prominence": null, "ele": 3033 }, "geometry": { "type": "Point", "coordinates": [ 0.339503, 42.710503 ] } },
{ "type": "Feature", "properties": { "id": "node\/566485952", "name": "Petit Vignemale", "prominence": null, "ele": 3032 }, "geometry": { "type": "Point", "coordinates": [ -0.135086, 42.774713 ] } },
{ "type": "Feature", "properties": { "id": "node\/626949740", "name": "Tuqueta de la Crencha", "prominence": null, "ele": 3032 }, "geometry": { "type": "Point", "coordinates": [ 0.644751, 42.623724 ] } },
{ "type": "Feature", "properties": { "id": "node\/652132403", "name": "Algas N", "prominence": null, "ele": 3032 }, "geometry": { "type": "Point", "coordinates": [ -0.270989, 42.769668 ] } },
{ "type": "Feature", "properties": { "id": "node\/1250021974", "name": "Pico Eriste Norte o Beraldi", "prominence": null, "ele": 3031 }, "geometry": { "type": "Point", "coordinates": [ 0.413042, 42.62664 ] } },
{ "type": "Feature", "properties": { "id": "node\/2356214063", "name": "Gabieto Norte", "prominence": null, "ele": 3031 }, "geometry": { "type": "Point", "coordinates": [ -0.062099, 42.694574 ] } },
{ "type": "Feature", "properties": { "id": "node\/4930071381", "name": "Bugarret", "prominence": null, "ele": 3031 }, "geometry": { "type": "Point", "coordinates": [ 0.091521, 42.801006 ] } },
{ "type": "Feature", "properties": { "id": "node\/5003172158", "name": "Pico Culfreda Central", "prominence": null, "ele": 3031 }, "geometry": { "type": "Point", "coordinates": [ 0.338023, 42.709931 ] } },
{ "type": "Feature", "properties": { "id": "node\/26862732", "name": "Pic de Comaloforno", "prominence": "742", "ele": 3029 }, "geometry": { "type": "Point", "coordinates": [ 0.827831, 42.591379 ] } },
{ "type": "Feature", "properties": { "id": "node\/5003093297", "name": "Pointe Aires", "prominence": null, "ele": 3028 }, "geometry": { "type": "Point", "coordinates": [ 0.135226, 42.72728 ] } },
{ "type": "Feature", "properties": { "id": "node\/4321471712", "name": "Punta Escaleras", "prominence": null, "ele": 3027 }, "geometry": { "type": "Point", "coordinates": [ 0.029876, 42.669803 ] } },
{ "type": "Feature", "properties": { "id": "node\/6875982138", "name": "Punta de Literola", "prominence": null, "ele": 3027 }, "geometry": { "type": "Point", "coordinates": [ 0.526055, 42.700389 ] } },
{ "type": "Feature", "properties": { "id": "node\/5003160014", "name": "Baudrimont SE", "prominence": null, "ele": 3026 }, "geometry": { "type": "Point", "coordinates": [ 0.052087, 42.66956 ] } },
{ "type": "Feature", "properties": { "id": "node\/45197008", "name": "Pic de l'Abeillé", "prominence": null, "ele": 3025 }, "geometry": { "type": "Point", "coordinates": [ 0.392815, 42.713244 ] } },
{ "type": "Feature", "properties": { "id": "node\/652132400", "name": "Algas SE", "prominence": null, "ele": 3025 }, "geometry": { "type": "Point", "coordinates": [ -0.269873, 42.767542 ] } },
{ "type": "Feature", "properties": { "id": "node\/5003256545", "name": "Aguja Jean Garnier", "prominence": null, "ele": 3025 }, "geometry": { "type": "Point", "coordinates": [ 0.533052, 42.701251 ] } },
{ "type": "Feature", "properties": { "id": "node\/575756027", "name": "Besiberri Sud", "prominence": null, "ele": 3023 }, "geometry": { "type": "Point", "coordinates": [ 0.825996, 42.593787 ] } },
{ "type": "Feature", "properties": { "id": "node\/734648028", "name": "Pic de Lustou", "prominence": "265", "ele": 3023 }, "geometry": { "type": "Point", "coordinates": [ 0.360001, 42.734781 ] } },
{ "type": "Feature", "properties": { "id": "node\/5003256540", "name": "Aguja Inferior de Lézat", "prominence": null, "ele": 3023 }, "geometry": { "type": "Point", "coordinates": [ 0.519404, 42.706305 ] } },
{ "type": "Feature", "properties": { "id": "node\/652132356", "name": "Aguja Cadier", "prominence": null, "ele": 3022 }, "geometry": { "type": "Point", "coordinates": [ -0.289872, 42.83432 ] } },
{ "type": "Feature", "properties": { "id": "node\/652132405", "name": "Aguja D'Ussel", "prominence": null, "ele": 3022 }, "geometry": { "type": "Point", "coordinates": [ -0.284164, 42.837624 ] } },
{ "type": "Feature", "properties": { "id": "node\/1250022420", "name": "Punta de las Olas", "prominence": null, "ele": 3022 }, "geometry": { "type": "Point", "coordinates": [ 0.053474, 42.662189 ] } },
{ "type": "Feature", "properties": { "id": "node\/1809407554", "name": "Pic Heid", "prominence": null, "ele": 3022 }, "geometry": { "type": "Point", "coordinates": [ 0.135119, 42.728695 ] } },
{ "type": "Feature", "properties": { "id": "node\/5003473133", "name": "Aguja Juncadella", "prominence": null, "ele": 3022 }, "geometry": { "type": "Point", "coordinates": [ 0.633096, 42.633489 ] } },
{ "type": "Feature", "properties": { "id": "node\/6897394191", "name": "Pico del Puerto", "prominence": null, "ele": 3022 }, "geometry": { "type": "Point", "coordinates": [ 0.384651, 42.710661 ] } },
{ "type": "Feature", "properties": { "id": "node\/4930071380", "name": "Pale Crabounouse", "prominence": null, "ele": 3021 }, "geometry": { "type": "Point", "coordinates": [ 0.088021, 42.803158 ] } },
{ "type": "Feature", "properties": { "id": "node\/5003033725", "name": "Aguja de Arnales", "prominence": null, "ele": 3020 }, "geometry": { "type": "Point", "coordinates": [ -0.257385, 42.780879 ] } },
{ "type": "Feature", "properties": { "id": "node\/1089570438", "name": "Pico de Clarabide", "prominence": null, "ele": 3019 }, "geometry": { "type": "Point", "coordinates": [ 0.467905, 42.694871 ] } },
{ "type": "Feature", "properties": { "id": "node\/1377651606", "name": "Pico Oriental de Clarabide", "prominence": null, "ele": 3017 }, "geometry": { "type": "Point", "coordinates": [ 0.468653, 42.696504 ] } },
{ "type": "Feature", "properties": { "id": "node\/4930071382", "name": "Dent D´ Estibère Male", "prominence": null, "ele": 3017 }, "geometry": { "type": "Point", "coordinates": [ 0.094401, 42.800697 ] } },
{ "type": "Feature", "properties": { "id": "node\/5003088276", "name": "Pale Crabounouse N.", "prominence": null, "ele": 3016 }, "geometry": { "type": "Point", "coordinates": [ 0.089618, 42.80443 ] } },
{ "type": "Feature", "properties": { "id": "node\/1250020141", "name": "Petit Astazou", "prominence": null, "ele": 3015 }, "geometry": { "type": "Point", "coordinates": [ 0.014493, 42.701876 ] } },
{ "type": "Feature", "properties": { "id": "node\/3707866584", "name": "Punta Alta de Comalesbienes", "prominence": "541", "ele": 3014 }, "geometry": { "type": "Point", "coordinates": [ 0.880302, 42.585694 ] } },
{ "type": "Feature", "properties": { "id": "node\/4999107332", "name": "Aiguille Tourrat", "prominence": null, "ele": 3014 }, "geometry": { "type": "Point", "coordinates": [ 0.103684, 42.80482 ] } },
{ "type": "Feature", "properties": { "id": "node\/1250039684", "name": "Pico de Gías", "prominence": null, "ele": 3013 }, "geometry": { "type": "Point", "coordinates": [ 0.47016, 42.693425 ] } },
{ "type": "Feature", "properties": { "id": "node\/2192183388", "name": "Tour du Marboré", "prominence": "74", "ele": 3012 }, "geometry": { "type": "Point", "coordinates": [ -0.017078, 42.685787 ] } },
{ "type": "Feature", "properties": { "id": "node\/652132406", "name": "Aguja de Pondiellos", "prominence": null, "ele": 3011 }, "geometry": { "type": "Point", "coordinates": [ -0.262143, 42.77183 ] } },
{ "type": "Feature", "properties": { "id": "node\/1092110096", "name": "Le Casque du Marboré", "prominence": "117", "ele": 3011 }, "geometry": { "type": "Point", "coordinates": [ -0.026758, 42.687771 ] } },
{ "type": "Feature", "properties": { "id": "node\/2927071009", "name": "Pic Ramougn", "prominence": null, "ele": 3011 }, "geometry": { "type": "Point", "coordinates": [ 0.120162, 42.834818 ] } },
{ "type": "Feature", "properties": { "id": "node\/5003256539", "name": "Punta Lacq", "prominence": null, "ele": 3010 }, "geometry": { "type": "Point", "coordinates": [ 0.51993, 42.70595 ] } },
{ "type": "Feature", "properties": { "id": "node\/255545933", "name": "Tuc de Molières", "prominence": "198", "ele": 3009 }, "geometry": { "type": "Point", "coordinates": [ 0.69858, 42.629511 ] } },
{ "type": "Feature", "properties": { "id": "node\/575756036", "name": "Besiberri Nord", "prominence": "101", "ele": 3008 }, "geometry": { "type": "Point", "coordinates": [ 0.826304, 42.605262 ] } },
{ "type": "Feature", "properties": { "id": "node\/577199656", "name": "Pico de la Forqueta", "prominence": "146", "ele": 3008 }, "geometry": { "type": "Point", "coordinates": [ 0.425697, 42.631571 ] } },
{ "type": "Feature", "properties": { "id": "node\/5003256552", "name": "Pico Belloc", "prominence": null, "ele": 3008 }, "geometry": { "type": "Point", "coordinates": [ 0.479933, 42.712722 ] } },
{ "type": "Feature", "properties": { "id": "node\/5003256550", "name": "Belloc S", "prominence": null, "ele": 3007 }, "geometry": { "type": "Point", "coordinates": [ 0.480695, 42.712344 ] } },
{ "type": "Feature", "properties": { "id": "node\/652132544", "name": "Pico de Los Arnales", "prominence": null, "ele": 3006 }, "geometry": { "type": "Point", "coordinates": [ -0.255938, 42.780155 ] } },
{ "type": "Feature", "properties": { "id": "node\/2287097469", "name": "Pic d'Estaragne", "prominence": null, "ele": 3006 }, "geometry": { "type": "Point", "coordinates": [ 0.130299, 42.79716 ] } },
{ "type": "Feature", "properties": { "id": "node\/5003256551", "name": "Belloc Central", "prominence": null, "ele": 3006 }, "geometry": { "type": "Point", "coordinates": [ 0.480298, 42.712541 ] } },
{ "type": "Feature", "properties": { "id": "node\/5155428041", "name": "Pic de Boum", "prominence": "112", "ele": 3006 }, "geometry": { "type": "Point", "coordinates": [ 0.557577, 42.699371 ] } },
{ "type": "Feature", "properties": { "id": "node\/575896583", "name": "Grande Fache", "prominence": "283", "ele": 3005 }, "geometry": { "type": "Point", "coordinates": [ -0.237874, 42.808194 ] } },
{ "type": "Feature", "properties": { "id": "node\/45193909", "name": "Pic Rodó de Canalbona", "prominence": null, "ele": 3004 }, "geometry": { "type": "Point", "coordinates": [ 1.401699, 42.662583 ] } },
{ "type": "Feature", "properties": { "id": "node\/5003215077", "name": "La Forqueta SE", "prominence": null, "ele": 3004 }, "geometry": { "type": "Point", "coordinates": [ 0.426617, 42.63073 ] } },
{ "type": "Feature", "properties": { "id": "node\/652132456", "name": "Algas SO", "prominence": null, "ele": 3003 }, "geometry": { "type": "Point", "coordinates": [ -0.271295, 42.767545 ] } },
{ "type": "Feature", "properties": { "id": "node\/5003256557", "name": "Pico Saint-Saud", "prominence": null, "ele": 3003 }, "geometry": { "type": "Point", "coordinates": [ 0.467884, 42.702213 ] } },
{ "type": "Feature", "properties": { "id": "node\/652132477", "name": "Frondella SW", "prominence": null, "ele": 3001 }, "geometry": { "type": "Point", "coordinates": [ -0.297511, 42.828548 ] } },
{ "type": "Feature", "properties": { "id": "node\/1250021228", "name": "Pico de la Robiñera", "prominence": "181", "ele": 3001 }, "geometry": { "type": "Point", "coordinates": [ 0.132531, 42.703923 ] } },
{ "type": "Feature", "properties": { "id": "node\/5003256547", "name": "Pequeño Pico Portillón", "prominence": null, "ele": 3000 }, "geometry": { "type": "Point", "coordinates": [ 0.503097, 42.692972 ] } }
]
}
